id,Address,BuildingAddress,Community,CompletionDate,InspectionDate,PermitNumber,StickerNumber,Ward,longitude,latitude,location,Pick?,Prices,Square footage
4,10 DEERSAXON RD SE,12 DEERSAXON RD SE,DEER RUN,03/20/2017 12:00:00 AM,March 20 2017,BP2017-00237,715,12,-114.018507695132,50.9208589138228,"(50.9208589138228, -114.018507695132)",FALSE,378.111429948643,756.222859897285
2,#2139G 2139 BROADVIEW RD NW,#2139G 2139 BROADVIEW RD NW,WEST HILLHURST,10/25/2013 12:00:00 AM,October 24 2013,BP2012-07431,161,7,-114.110271562928,51.0498061752687,"(51.0498061752687, -114.110271562928)",FALSE,802.76079494138,1605.52158988276
3,10 CITADEL CREST CI NW,10 CITADEL CREST CI NW,CITADEL,11/25/2014 12:00:00 AM,November 25 2014,BP2014-04011,348,2,-114.180876312837,51.1440006804549,"(51.1440006804549, -114.180876312837)",FALSE,796.372132215496,1592.74426443099
0,#1 7068 LAGUNA WY NE,7068 LAGUNA WY NE,MONTEREY PARK,11/11/2012 12:00:00 AM,November 09 2012,BP2012-13271,215,5,-113.92903931482,51.0841590478107,"(51.0841590478107, -113.92903931482)",TRUE,837.066806849619,1674.13361369924
6,1006 8 ST SE,1008 8 ST SE,RAMSAY,05/28/2014 12:00:00 AM,May 27 2014,BP2012-14280,200,9,-114.041762305662,51.0421175573181,"(51.0421175573181, -114.041762305662)",FALSE,624.862601144551,1249.7252022891
88,1221 19 AV NW,1221 19 AV NW,CAPITOL HILL,02/06/2015 12:00:00 AM,February 06 2015,BP2014-12098,415,7,-114.088670364006,51.0694251067499,"(51.0694251067499, -114.088670364006)",FALSE,628.570186559563,1257.14037311913
143,1435R MARDALE DR NE,1435 MARDALE DR NE,MARLBOROUGH,02/14/2017 12:00:00 AM,February 14 2017,BP2016-13661,694,10,-113.965971749948,51.0650092218133,"(51.0650092218133, -113.965971749948)",FALSE,160.290882054383,320.581764108766
102,127 RANCHLANDS CR NW,127 RANCHLANDS CR NW,RANCHLANDS,05/09/2017 12:00:00 AM,May 09 2017,BP2017-01316,748,2,-114.198700586132,51.1218159171229,"(51.1218159171229, -114.198700586132)",FALSE,801.348300259093,1602.69660051819
38,1108B 38 ST SE,1108 38 ST SE,FOREST LAWN,06/16/2017 12:00:00 AM,June 16 2017,BP2017-00804,777,9,-113.978346242287,51.0437404189745,"(51.0437404189745, -113.978346242287)",FALSE,734.798584253145,1469.59716850629
41,1112 38 ST SE,1112 38 ST SE,FOREST LAWN,02/17/2016 12:00:00 AM,December 04 2015,BP2015-12652,449,9,-113.978348235938,51.043593455159,"(51.043593455159, -113.978348235938)",FALSE,474.893750260272,949.787500520543
149,147 RIVERGLEN CR SE,147 RIVERGLEN CR SE,RIVERBEND,07/13/2017 12:00:00 AM,July 13 2017,BP2017-03865,792,9,-114.014097117455,50.9738990885291,"(50.9738990885291, -114.014097117455)",FALSE,182.592462059972,365.184924119945
105,130 SHERWOOD MT NW,130 SHERWOOD MT NW,SHERWOOD,03/20/2015 12:00:00 AM,February 26 2015,BP2014-10944,407,2,-114.158549413032,51.1604417539963,"(51.1604417539963, -114.158549413032)",FALSE,481.114497023871,962.228994047741
101,127 PRESTWICK LD SE,127 PRESTWICK LD SE,MCKENZIE TOWNE,09/16/2016 12:00:00 AM,September 16 2016,BP2015-12991,585,12,-113.966752176349,50.9184915931287,"(50.9184915931287, -113.966752176349)",FALSE,652.444108926594,1304.88821785319
161,1503 46 ST SE,1501 46 ST SE,FOREST LAWN,04/25/2016 12:00:00 AM,April 01 2016,BP2016-01539,502,9,-113.967509071633,51.0407781277128,"(51.0407781277128, -113.967509071633)",FALSE,723.543116475325,1447.08623295065
47,1127 37 ST SE,1127 37 ST SE,FOREST LAWN,04/03/2014 12:00:00 AM,April 02 2014,BP2013-18170,319,9,-113.980475008758,51.0430624555297,"(51.0430624555297, -113.980475008758)",TRUE,111.913413216245,223.826826432491
34,11 BRIGHTONWOODS CR SE,11 BRIGHTONWOODS CR SE,NEW BRIGHTON,03/27/2015 12:00:00 AM,March 27 2015,BP2013-11962,298,12,-113.941397415947,50.9169684898943,"(50.9169684898943, -113.941397415947)",FALSE,769.23962693659,1538.47925387318
45,112 12 ST NW,112 12 ST NW,HILLHURST,08/25/2016 12:00:00 AM,August 25 2016,BP2016-01898,575,7,-114.091316078137,51.0530223511128,"(51.0530223511128, -114.091316078137)",FALSE,667.471965234749,1334.9439304695
160,150 COVEMEADOW CL NE,150 COVEMEADOW CL NE,COVENTRY HILLS,10/09/2015 12:00:00 AM,October 09 2015,BP2013-14957,434,3,-114.061562661307,51.1712655369708,"(51.1712655369708, -114.061562661307)",TRUE,745.318012143301,1490.6360242866
76,12 ROYAL BIRCH HL NW,14 ROYAL BIRCH HL NW,ROYAL OAK,11/08/2016 12:00:00 AM,November 08 2016,BP2016-12125,623,1,-114.218710511368,51.1478481545084,"(51.1478481545084, -114.218710511368)",FALSE,259.272513312808,518.545026625615
31,1089 BRIGHTONCREST CM SE,1089 BRIGHTONCREST CM SE,NEW BRIGHTON,04/23/2015 12:00:00 AM,April 01 2015,BP2014-16984,419,12,-113.947743285134,50.9254858152505,"(50.9254858152505, -113.947743285134)",FALSE,749.721559072631,1499.44311814526
156,1493 COPPERFIELD BV SE,1493 COPPERFIELD BV SE,COPPERFIELD,04/09/2013 12:00:00 AM,April 09 2013,BP2013-00282,238,12,-113.923657016694,50.9145804910611,"(50.9145804910611, -113.923657016694)",FALSE,380.131362027422,760.262724054844
16,104 RIVERBROOK WY SE,104 RIVERBROOK WY SE,RIVERBEND,12/05/2014 12:00:00 AM,November 24 2014,BP2012-03229,137,9,-114.022325912989,50.9770042989576,"(50.9770042989576, -114.022325912989)",FALSE,279.817583964907,559.635167929814
152,147R HAWKLEY VALLEY RD NW,147 HAWKLEY VALLEY RD NW,HAWKWOOD,05/30/2017 12:00:00 AM,May 30 2017,BP2016-14981,655,2,-114.178703230317,51.1255835779392,"(51.1255835779392, -114.178703230317)",TRUE,215.360574390475,430.72114878095
33,10G MURMANSK WY SW,10G MURMANSK WY SW,CFB - CURRIE,08/23/2011 12:00:00 AM,August 11 2011,BP2010-11610,29,8,-114.132983566036,51.0189326539186,"(51.0189326539186, -114.132983566036)",FALSE,632.577440934907,1265.15488186981
89,1225 27 ST SE,1225 27 ST SE,ALBERT PARK/RADISSON HEIGHTS,01/14/2015 12:00:00 AM,January 14 2015,BP2013-16246,325,9,-113.995750752704,51.0423289813569,"(51.0423289813569, -113.995750752704)",FALSE,3.40718901787218,6.81437803574436
36,1103 21 AV NW,1103 21 AV NW,CAPITOL HILL,05/29/2017 12:00:00 AM,May 29 2017,BP2016-07915,765,7,-114.0851865497,51.07127454038,"(51.07127454038, -114.0851865497)",FALSE,836.552954541506,1673.10590908301
87,122 WALDEN CR SE,122 WALDEN CR SE,WALDEN,05/23/2017 12:00:00 AM,May 23 2017,BP2017-02060,758,14,-114.039388145863,50.8713208813387,"(50.8713208813387, -114.039388145863)",FALSE,476.827094900087,953.654189800173
117,134G WESTOVER DR SW,134G WESTOVER DR SW,WESTGATE,02/14/2011 12:00:00 AM,February 11 2011,BP2010-00461,12,6,-114.161220169901,51.0479908511768,"(51.0479908511768, -114.161220169901)",FALSE,438.555948244762,877.111896489525
96,1243 MARDALE DR NE,1243 MARDALE DR NE,MARLBOROUGH,12/07/2010 12:00:00 AM,November 29 2010,BP2010-10924,31,10,-113.969609192344,51.0651939825578,"(51.0651939825578, -113.969609192344)",FALSE,958.941556511631,1917.88311302326
121,137 HOWSE AV NE,137 HOWSE AV NE,LIVINGSTON,09/22/2017 12:00:00 AM,September 22 2017,BP2017-05097,839,3,-114.068208403897,51.1874184390974,"(51.1874184390974, -114.068208403897)",FALSE,386.892267042954,773.784534085907
157,1496 PANATELLA BV NW,1496 PANATELLA BV NW,PANORAMA HILLS,05/28/2013 12:00:00 AM,May 27 2013,BP2012-17287,234,3,-114.083221855369,51.1701464842566,"(51.1701464842566, -114.083221855369)",FALSE,63.5944569078784,127.188913815757
136,141 EVEROAK PA SW,141 EVEROAK PA SW,EVERGREEN,02/10/2012 12:00:00 AM,February 08 2012,BP2011-02416,55,13,-114.11489886054,50.9171774754134,"(50.9171774754134, -114.11489886054)",FALSE,328.197954230759,656.395908461517
14,1036 ABBEYDALE DR NE,1036 ABBEYDALE DR NE,ABBEYDALE,04/02/2014 12:00:00 AM,March 11 2014,BP2013-07163,284,10,-113.926275615807,51.0579320363244,"(51.0579320363244, -113.926275615807)",FALSE,973.748781813792,1947.49756362758
69,118G ELGIN MEADOWS CI SE,118G ELGIN MEADOWS CI SE,MCKENZIE TOWNE,05/26/2010 12:00:00 AM,April 16 2010,BP2009-12795,9,12,-113.954169815511,50.9082343634718,"(50.9082343634718, -113.954169815511)",FALSE,866.369522479645,1732.73904495929
107,1304 4 ST NW,1304 4 ST NW,CRESCENT HEIGHTS,02/15/2013 12:00:00 AM,February 13 2013,BP2012-10197,177,7,-114.071255309516,51.0635913402063,"(51.0635913402063, -114.071255309516)",FALSE,959.231420388495,1918.46284077699
15,104 ABINGER CR NE,104 ABINGER CR NE,ABBEYDALE,05/13/2016 12:00:00 AM,May 13 2016,BP2015-00648,545,10,-113.932580995306,51.0567405436772,"(51.0567405436772, -113.932580995306)",FALSE,719.776432614566,1439.55286522913
52,11303 11 ST SW,11303 11 ST SW,SOUTHWOOD,12/27/2016 12:00:00 AM,December 27 2016,BP2016-00977,654,11,-114.088425322057,50.9512482299536,"(50.9512482299536, -114.088425322057)",FALSE,134.755039776694,269.510079553388
24,107R KINCORA GLEN RD NW,107 KINCORA GLEN RD NW,KINCORA,06/25/2014 12:00:00 AM,June 24 2014,BP2012-17315,1,2,-114.137182952004,51.1652921972863,"(51.1652921972863, -114.137182952004)",FALSE,256.888517379002,513.777034758004
55,113G AUBURN CREST GR SE,113G AUBURN CREST GR SE,AUBURN BAY,07/17/2014 12:00:00 AM,July 11 2014,BP2013-16822,317,12,-113.947248538745,50.8847118277542,"(50.8847118277542, -113.947248538745)",FALSE,456.416880610465,912.833761220931
74,11R ASPEN VISTA WY SW,11 ASPEN VISTA WY SW,ASPEN WOODS,05/17/2017 12:00:00 AM,May 17 2017,BP2016-11015,754,6,-114.204071421061,51.0439352932897,"(51.0439352932897, -114.204071421061)",FALSE,590.647067869603,1181.29413573921
114,1336 37 ST SE,1336 37 ST SE,FOREST LAWN,08/24/2015 12:00:00 AM,July 31 2015,BP2015-07793,433,9,-113.979814593027,51.0412278436349,"(51.0412278436349, -113.979814593027)",FALSE,608.194017884487,1216.38803576897
44,111R KINCORA MR NW,111 KINCORA MR NW,KINCORA,05/18/2012 12:00:00 AM,May 17 2012,BP2011-15412,75,2,-114.134902594097,51.1575506415976,"(51.1575506415976, -114.134902594097)",FALSE,268.352895368656,536.705790737313
40,1111 40 ST SE,1111 40 ST SE,FOREST LAWN,04/08/2015 12:00:00 AM,March 11 2015,BP2014-15208,377,9,-113.976058432396,51.0435978540085,"(51.0435978540085, -113.976058432396)",FALSE,739.525201070956,1479.05040214191
73,11G TOMMY PRINCE RD SW,11G TOMMY PRINCE RD SW,CFB - CURRIE,09/14/2012 12:00:00 AM,September 13 2012,BP2012-02516,126,8,-114.131045725405,51.0208394890704,"(51.0208394890704, -114.131045725405)",FALSE,606.540707326623,1213.08141465325
139,143 ABINGDON WY NE,143 ABINGDON WY NE,ABBEYDALE,11/24/2015 12:00:00 AM,November 24 2015,BP2014-06260,448,10,-113.925803346944,51.0647824530514,"(51.0647824530514, -113.925803346944)",FALSE,980.889770984766,1961.77954196953
10,1027G 9 ST SE,1027G 9 ST SE,RAMSAY,08/31/2017 12:00:00 AM,August 31 2017,BP2016-11064,821,9,-114.040862076004,51.0408777141217,"(51.0408777141217, -114.040862076004)",FALSE,889.25383653338,1778.50767306676
26,108 EVANSVIEW RD NW,108 EVANSVIEW RD NW,EVANSTON,06/16/2016 12:00:00 AM,June 14 2016,BP2015-16276,526,2,-114.121070717929,51.168892846777,"(51.168892846777, -114.121070717929)",FALSE,286.364318952631,572.728637905262
42,1118 18 AV NW,1118 18 AV NW,CAPITOL HILL,10/19/2012 12:00:00 AM,October 19 2012,BP2012-10140,174,7,-114.085875040517,51.068950173293,"(51.068950173293, -114.085875040517)",FALSE,973.329046745492,1946.65809349098
94,1238 3 ST NW,1238 3 ST NW,CRESCENT HEIGHTS,02/12/2013 12:00:00 AM,February 11 2013,BP2012-12578,180,7,-114.069695965635,51.0631763895727,"(51.0631763895727, -114.069695965635)",FALSE,430.458019206213,860.916038412425
28,10808 5 ST SW,10806 5 ST SW,SOUTHWOOD,09/15/2017 12:00:00 AM,September 15 2017,BP2017-06627,829,11,-114.077273178173,50.95624193461,"(50.95624193461, -114.077273178173)",FALSE,325.746465103261,651.492930206522
163,150G ELGIN MEADOWS WY SE,150G ELGIN MEADOWS WY SE,MCKENZIE TOWNE,03/27/2012 12:00:00 AM,March 02 2012,BP2011-12387,92,12,-113.955920363042,50.9062576807871,"(50.9062576807871, -113.955920363042)",FALSE,921.098106922782,1842.19621384556
68,11810 ELBOW DR SW,11808 ELBOW DR SW,CANYON MEADOWS,08/17/2017 12:00:00 AM,August 17 2017,BP2016-06643,812,13,-114.084006239808,50.947496687722,"(50.947496687722, -114.084006239808)",FALSE,155.794631773301,311.589263546602
59,115 COPPERSTONE BV SE,115 COPPERSTONE BV SE,COPPERFIELD,09/23/2016 12:00:00 AM,September 23 2016,BP2015-13464,594,12,-113.927592398909,50.9179905600566,"(50.9179905600566, -113.927592398909)",FALSE,181.457121425329,362.914242850658
108,130G 7 AV NW,130G 7 AV NW,CRESCENT HEIGHTS,07/19/2016 12:00:00 AM,July 19 2016,BP2015-14207,556,7,-114.06427541498,51.0592609896018,"(51.0592609896018, -114.06427541498)",FALSE,98.7463875814625,197.492775162925
132,140 EVERHOLLOW ST SW,140 EVERHOLLOW ST SW,EVERGREEN,08/02/2016 12:00:00 AM,April 29 2016,BP2015-06678,568,13,-114.117514153227,50.917457866814,"(50.917457866814, -114.117514153227)",FALSE,600.383823169113,1200.76764633823
78,1201 RENFREW DR NE,1201 RENFREW DR NE,RENFREW,02/23/2015 12:00:00 AM,February 23 2015,BP2014-08258,367,9,-114.033930991466,51.0624507533604,"(51.0624507533604, -114.033930991466)",FALSE,857.936514753985,1715.87302950797
141,1430G 11 AV SE,1430G 11 AV SE,INGLEWOOD,04/10/2014 12:00:00 AM,June 07 2013,BP2009-12323,8,9,-114.030982979928,51.0382535076173,"(51.0382535076173, -114.030982979928)",FALSE,954.520079579921,1909.04015915984
162,1506 40 ST SE,1506 40 ST SE,FOREST LAWN,01/28/2011 12:00:00 AM,January 21 2011,BP2010-10096,22,9,-113.975410566145,51.0406219816199,"(51.0406219816199, -113.975410566145)",FALSE,318.577210901062,637.154421802124
72,1195R ABBEYDALE DR NE,1195 ABBEYDALE DR NE,ABBEYDALE,03/27/2012 12:00:00 AM,February 16 2012,BP2011-06107,76,10,-113.931660051836,51.0536564456374,"(51.0536564456374, -113.931660051836)",FALSE,264.756379361501,529.512758723001
66,116G PRESTWICK DR SE,116G PRESTWICK DR SE,MCKENZIE TOWNE,04/26/2010 12:00:00 AM,April 21 2010,BP2009-13460,10,12,-113.969863054949,50.9236665256656,"(50.9236665256656, -113.969863054949)",FALSE,909.342835574109,1818.68567114822
135,1408 38 ST SW,1406 38 ST SW,ROSSCARROCK,07/24/2012 12:00:00 AM,June 29 2012,BP2012-01389,123,6,-114.142262216984,51.0411698218947,"(51.0411698218947, -114.142262216984)",FALSE,365.498709334863,730.997418669726
111,13108 COVENTRY HILLS WY NE,13108 COVENTRY HILLS WY NE,COVENTRY HILLS,06/15/2016 12:00:00 AM,May 24 2016,BP2015-10594,686,3,-114.052317307548,51.1695792570949,"(51.1695792570949, -114.052317307548)",FALSE,406.70095190821,813.401903816419
112,1311 18 AV NW,1311 18 AV NW,CAPITOL HILL,08/15/2017 12:00:00 AM,August 14 2017,BP2016-04523,807,7,-114.090591265451,51.068547965459,"(51.068547965459, -114.090591265451)",FALSE,337.290280785851,674.580561571703
125,139 ELGIN MEADOWS WY SE,139 ELGIN MEADOWS WY SE,MCKENZIE TOWNE,10/31/2014 12:00:00 AM,October 08 2014,BP2014-10572,412,12,-113.956478486273,50.9059996449131,"(50.9059996449131, -113.956478486273)",FALSE,952.161539350129,1904.32307870026
122,137 PANAMOUNT PL NW,137 PANAMOUNT PL NW,PANORAMA HILLS,06/03/2015 12:00:00 AM,May 11 2015,BP2014-17172,421,3,-114.082241085373,51.1593664157067,"(51.1593664157067, -114.082241085373)",FALSE,481.651265342574,963.302530685149
115,134 COVINGTON RD NE,136 COVINGTON RD NE,COVENTRY HILLS,06/01/2015 12:00:00 AM,May 29 2015,BP2015-02252,423,3,-114.039581675652,51.1578881450684,"(51.1578881450684, -114.039581675652)",FALSE,784.061971694266,1568.12394338853
80,1205 28 ST SE,1205 28 ST SE,ALBERT PARK/RADISSON HEIGHTS,06/06/2016 12:00:00 AM,May 13 2016,BP2016-01986,523,9,-113.993348359578,51.0435316060822,"(51.0435316060822, -113.993348359578)",FALSE,701.57073737139,1403.14147474278
120,1355 5 AV NW,1355 5 AV NW,HILLHURST,07/11/2017 12:00:00 AM,July 11 2017,BP2016-04801,790,7,-114.092589332064,51.0569463599448,"(51.0569463599448, -114.092589332064)",FALSE,73.2004921912011,146.400984382402
11,103 ELGIN VW SE,103 ELGIN VW SE,MCKENZIE TOWNE,07/18/2017 12:00:00 AM,July 18 2017,BP2015-04661,861,12,-113.966812428505,50.9051633783733,"(50.9051633783733, -113.966812428505)",FALSE,991.90473856013,1983.80947712026
116,134 KINCORA MR NW,134 KINCORA MR NW,KINCORA,09/26/2016 12:00:00 AM,February 05 2016,BP2015-02855,486,2,-114.136078700194,51.1573257538761,"(51.1573257538761, -114.136078700194)",TRUE,295.576025699192,591.152051398385
129,13R ASPEN VISTA RD SW,13 ASPEN VISTA RD SW,ASPEN WOODS,01/16/2017 12:00:00 AM,January 16 2017,BP2016-07196,666,6,-114.203111171718,51.0442328005146,"(51.0442328005146, -114.203111171718)",FALSE,241.005045726647,482.010091453295
27,10804 5 ST SW,10804 5 ST SW,SOUTHWOOD,12/22/2011 12:00:00 AM,December 21 2011,BP2011-03858,80,11,-114.077295542173,50.9564068390054,"(50.9564068390054, -114.077295542173)",FALSE,775.688170589945,1551.37634117989
82,1216 RANCHLANDS BV NW,1216 RANCHLANDS BV NW,RANCHLANDS,05/10/2016 12:00:00 AM,May 06 2016,BP2015-14914,520,2,-114.193216594921,51.1200672207482,"(51.1200672207482, -114.193216594921)",FALSE,698.223240525302,1396.4464810506
110,1310 10 AV SE,1310 10 AV SE,INGLEWOOD,07/29/2016 12:00:00 AM,July 29 2016,BP2015-15178,560,9,-114.034299040798,51.0403594083833,"(51.0403594083833, -114.034299040798)",FALSE,390.295457989625,780.590915979249
63,116 WHITESIDE CR NE,116 WHITESIDE CR NE,WHITEHORN,07/18/2017 12:00:00 AM,July 18 2017,BP2017-00065,795,5,-113.961019753814,51.087308305781,"(51.087308305781, -113.961019753814)",FALSE,271.505539739816,543.011079479632
93,1232G 19 AV NW,1232G 19 AV NW,CAPITOL HILL,10/13/2017 12:00:00 AM,October 13 2017,BP2016-11953,850,7,-114.089125050225,51.0700199238506,"(51.0700199238506, -114.089125050225)",FALSE,935.226386840915,1870.45277368183
29,10821 5 ST SW,10821 5 ST SW,SOUTHWOOD,04/25/2016 12:00:00 AM,April 01 2016,BP2015-05038,592,11,-114.077858385439,50.955762367824,"(50.955762367824, -114.077858385439)",FALSE,285.11337167849,570.226743356979
158,14R ARBOUR LAKE PL NW,14 ARBOUR LAKE PL NW,ARBOUR LAKE,06/02/2016 12:00:00 AM,June 02 2016,BP2016-03863,534,2,-114.190392170644,51.1365241597734,"(51.1365241597734, -114.190392170644)",FALSE,326.782138084486,653.564276168971
23,10501 SACRAMENTO DR SW,10501 SACRAMENTO DR SW,SOUTHWOOD,10/26/2017 12:00:00 AM,October 26 2017,BP2017-05834,858,11,-114.077199521597,50.959894045605,"(50.959894045605, -114.077199521597)",FALSE,449.575560036022,899.151120072043
90,122R ARBOUR RIDGE PA NW,122 ARBOUR RIDGE PA NW,ARBOUR LAKE,04/24/2017 12:00:00 AM,April 24 2017,BP2017-01259,736,2,-114.182835358325,51.1410178277459,"(51.1410178277459, -114.182835358325)",FALSE,634.466009972339,1268.93201994468
79,1203 RENFREW DR NE,1203 RENFREW DR NE,RENFREW,08/18/2014 12:00:00 AM,August 18 2014,BP2014-08259,368,9,-114.034021950584,51.0625267708447,"(51.0625267708447, -114.034021950584)",FALSE,574.29833881013,1148.59667762026
57,1149R 10 ST SE,1149 10 ST SE,RAMSAY,03/31/2017 12:00:00 AM,March 31 2017,BP2017-01916,719,9,-114.038358567341,51.0380549566635,"(51.0380549566635, -114.038358567341)",FALSE,923.218997368213,1846.43799473643
12,103 HARVEST GOLD CI NE,103 HARVEST GOLD CI NE,HARVEST HILLS,04/02/2015 12:00:00 AM,April 02 2015,BP2014-18950,396,3,-114.065163936117,51.1446175890396,"(51.1446175890396, -114.065163936117)",FALSE,987.829181053637,1975.65836210727
71,119 7 AV NE,119 7 AV NE,CRESCENT HEIGHTS,08/18/2017 12:00:00 AM,August 18 2017,BP2016-09257,813,7,-114.061223205872,51.0586604881632,"(51.0586604881632, -114.061223205872)",FALSE,21.0372414484373,42.0744828968747
75,12 ALLANDALE CL SE,12 ALLANDALE CL SE,ACADIA,08/10/2017 12:00:00 AM,June 09 2017,BP2016-11019,771,9,-114.049288275803,50.9724203038253,"(50.9724203038253, -114.049288275803)",FALSE,721.591472851371,1443.18294570274
100,126 QUARRY DR SE,126 QUARRY DR SE,DOUGLASDALE/GLEN,08/21/2012 12:00:00 AM,August 20 2012,BP2012-02315,128,12,-114.017018048751,50.9587845517302,"(50.9587845517302, -114.017018048751)",FALSE,621.791577199944,1243.58315439989
32,1097 BRIGHTONCREST CM SE,1097 BRIGHTONCREST CM SE,NEW BRIGHTON,10/16/2015 12:00:00 AM,September 24 2015,BP2014-19542,578,12,-113.947728249246,50.9256770780205,"(50.9256770780205, -113.947728249246)",FALSE,259.976570715288,519.953141430576
150,147 ST MORITZ TC SW,147 ST MORITZ TC SW,SPRINGBANK HILL,05/25/2015 12:00:00 AM,May 22 2015,BP2014-16397,416,6,-114.21161136299,51.0365315622599,"(51.0365315622599, -114.21161136299)",FALSE,583.265293369167,1166.53058673833
58,114G ELGIN MEADOWS CI SE,114G ELGIN MEADOWS CI SE,MCKENZIE TOWNE,07/05/2011 12:00:00 AM,June 29 2011,BP2010-11233,24,12,-113.954028758365,50.9082691620354,"(50.9082691620354, -113.954028758365)",FALSE,63.0009642416811,126.001928483362
70,118G QUARRY DR SE,118G QUARRY DR SE,DOUGLASDALE/GLEN,02/07/2012 12:00:00 AM,January 17 2012,BP2011-10310,440,12,-114.016653996763,50.9589963784767,"(50.9589963784767, -114.016653996763)",FALSE,886.870974749949,1773.7419494999
18,104 WESTMINSTER DR SW,104 WESTMINSTER DR SW,WESTGATE,12/28/2012 12:00:00 AM,December 27 2012,BP2011-13440,96,6,-114.160290418565,51.0463319862739,"(51.0463319862739, -114.160290418565)",TRUE,127.305758708567,254.611517417134
124,138G ELGIN VW SE,138G ELGIN VW SE,MCKENZIE TOWNE,10/09/2015 12:00:00 AM,October 09 2015,BP2013-01875,446,12,-113.968054244452,50.9056319662413,"(50.9056319662413, -113.968054244452)",FALSE,488.203244491534,976.406488983068
85,122 COVILLE CI NE,122 COVILLE CI NE,COVENTRY HILLS,05/26/2015 12:00:00 AM,May 01 2015,BP2015-02318,424,3,-114.040312332378,51.1724210540048,"(51.1724210540048, -114.040312332378)",FALSE,567.096593751036,1134.19318750207
30,10823 5 ST SW,10823 5 ST SW,SOUTHWOOD,04/25/2016 12:00:00 AM,April 01 2016,BP2015-05031,593,11,-114.077858956224,50.9557036096371,"(50.9557036096371, -114.077858956224)",FALSE,206.52912928509,413.058258570181
86,122 QUARRY DR SE,122 QUARRY DR SE,DOUGLASDALE/GLEN,06/06/2012 12:00:00 AM,June 06 2012,BP2012-02316,129,12,-114.01684112856,50.9587789137575,"(50.9587789137575, -114.01684112856)",FALSE,568.692248767858,1137.38449753572
159,14R WALDEN CR SE,14 WALDEN CR SE,WALDEN,06/21/2013 12:00:00 AM,June 19 2013,BP2013-03079,271,14,-114.038535055865,50.8731745805339,"(50.8731745805339, -114.038535055865)",TRUE,876.512899447594,1753.02579889519
81,1215 25 ST SE,1215 25 ST SE,ALBERT PARK/RADISSON HEIGHTS,04/28/2017 12:00:00 AM,April 28 2017,BP2017-02906,741,9,-114.000559785902,51.0423039129665,"(51.0423039129665, -114.000559785902)",FALSE,100.670104627001,201.340209254002
35,110 TUSCARORA PL NW,110 TUSCARORA PL NW,TUSCANY,11/21/2016 12:00:00 AM,November 21 2016,BP2016-13783,631,1,-114.234643098159,51.1276382582026,"(51.1276382582026, -114.234643098159)",FALSE,216.918155309558,433.836310619117
19,104 WESTWOOD DR SW,104 WESTWOOD DR SW,WESTGATE,03/06/2017 12:00:00 AM,March 06 2017,BP2015-13833,706,6,-114.162251459406,51.0464524128813,"(51.0464524128813, -114.162251459406)",FALSE,446.167884271639,892.335768543278
60,1152 RANCHLANDS BV NW,1152 RANCHLANDS BV NW,RANCHLANDS,12/21/2012 12:00:00 AM,December 21 2012,BP2012-16226,221,2,-114.190868272302,51.1184229185746,"(51.1184229185746, -114.190868272302)",FALSE,258.724912393208,517.449824786415
154,14848 MT MCKENZIE DR SE,14848 MT MCKENZIE DR SE,MCKENZIE LAKE,01/31/2017 12:00:00 AM,January 31 2017,BP2016-15029,677,12,-113.981141176429,50.9209940031809,"(50.9209940031809, -113.981141176429)",TRUE,964.720150406562,1929.44030081312
46,112 SELKIRK DR SW,112 SELKIRK DR SW,SOUTHWOOD,04/20/2012 12:00:00 AM,April 18 2012,BP2011-13482,97,11,-114.093938963369,50.9630128624053,"(50.9630128624053, -114.093938963369)",TRUE,719.044300204199,1438.0886004084
738,69 SAGE MEADOWS WY NW,69 SAGE MEADOWS WY NW,SAGE HILL,02/14/2017 12:00:00 AM,February 14 2017,BP2015-15734,692,3,-114.1316253641,51.1732646860262,"(51.1732646860262, -114.1316253641)",FALSE,488.079754346151,976.159508692302
845,927G 32 ST NW,927G 32 ST NW,PARKDALE,08/30/2017 12:00:00 AM,August 30 2017,BP2016-08612,817,7,-114.130643836247,51.0601176520028,"(51.0601176520028, -114.130643836247)",FALSE,407.409857279445,814.819714558891
785,78R MARTHA'S MEADOW DR NE,78 MARTHA'S MEADOW DR NE,MARTINDALE,12/20/2016 12:00:00 AM,December 20 2016,BP2016-07661,646,3,-113.963874851645,51.1249200453665,"(51.1249200453665, -113.963874851645)",FALSE,407.793248196153,815.586496392306
326,2201 BRIGHTONCREST GR SE,2199 BRIGHTONCREST GR SE,NEW BRIGHTON,02/17/2016 12:00:00 AM,January 26 2016,BP2015-09651,489,12,-113.939916011009,50.9257176040533,"(50.9257176040533, -113.939916011009)",FALSE,607.468568046836,1214.93713609367
323,22 SAGE BERRY WY NW,22 SAGE BERRY WY NW,SAGE HILL,12/12/2016 12:00:00 AM,December 12 2016,BP2016-05553,639,2,-114.156504597902,51.1806934769962,"(51.1806934769962, -114.156504597902)",FALSE,821.87095957173,1643.74191914346
540,4008 16A ST SE,4008 16A ST SE,ALYTH/BONNYBROOK,10/23/2017 12:00:00 AM,October 23 2017,BP2017-07591,855,9,-114.020456464606,51.020107625891,"(51.020107625891, -114.020456464606)",FALSE,389.790991890649,779.581983781298
588,45 TUSCANY VALLEY PA NW,45 TUSCANY VALLEY PA NW,TUSCANY,05/27/2015 12:00:00 AM,May 26 2015,BP2015-01985,426,1,-114.246694044378,51.127076122689,"(51.127076122689, -114.246694044378)",FALSE,73.7119027277635,147.423805455527
263,196 HARTFORD RD NW,196 HARTFORD RD NW,HIGHWOOD,03/13/2012 12:00:00 AM,March 13 2012,BP2011-12998,93,7,-114.078214464741,51.0942541750618,"(51.0942541750618, -114.078214464741)",FALSE,980.464609608627,1960.92921921725
425,2738 6 AV NW,2736 6 AV NW,WEST HILLHURST,04/17/2012 12:00:00 AM,February 17 2012,BP2011-14098,101,7,-114.12491431084,51.0579969394839,"(51.0579969394839, -114.12491431084)",FALSE,638.514046834442,1277.02809366888
295,2050 48 AV SW,2050 48 AV SW,ALTADORE,04/03/2014 12:00:00 AM,March 19 2014,BP2013-04204,277,8,-114.109063854096,51.0108205676927,"(51.0108205676927, -114.109063854096)",FALSE,635.330122169558,1270.66024433912
303,20G HONG KONG RD SW,20G HONG KONG RD SW,CFB - CURRIE,08/17/2015 12:00:00 AM,August 17 2015,BP2014-14113,383,8,-114.131225113033,51.0175659479874,"(51.0175659479874, -114.131225113033)",FALSE,590.721353346299,1181.4427066926
343,23 BEARBERRY CL NW,23 BEARBERRY CL NW,BEDDINGTON HEIGHTS,05/25/2016 12:00:00 AM,May 25 2016,BP2015-14295,529,3,-114.093792650208,51.1312436846001,"(51.1312436846001, -114.093792650208)",FALSE,951.165465723444,1902.33093144689
819,840 ABBEYDALE DR NE,840 ABBEYDALE DR NE,ABBEYDALE,06/14/2012 12:00:00 AM,June 13 2012,BP2012-01037,121,10,-113.932596526728,51.0600433552894,"(51.0600433552894, -113.932596526728)",TRUE,820.628552439696,1641.25710487939
324,22 WALDEN CR SE,22 WALDEN CR SE,WALDEN,07/05/2013 12:00:00 AM,July 05 2013,BP2013-03573,272,14,-114.038813926838,50.8732849302757,"(50.8732849302757, -114.038813926838)",FALSE,182.818006877507,365.636013755014
481,325R COVECREEK CL NE,325 COVECREEK CL NE,COVENTRY HILLS,09/15/2017 12:00:00 AM,September 15 2017,BP2017-04956,818,3,-114.05283020056,51.1713427113263,"(51.1713427113263, -114.05283020056)",FALSE,759.08568455298,1518.17136910596
269,20 BEACHAM RD NW,20 BEACHAM RD NW,BEDDINGTON HEIGHTS,12/23/2015 12:00:00 AM,December 23 2015,BP2015-12232,460,3,-114.096961012957,51.1272619150777,"(51.1272619150777, -114.096961012957)",FALSE,929.23029301654,1858.46058603308
467,3147 107 AV SW,3147 107 AV SW,CEDARBRAE,10/19/2015 12:00:00 AM,October 16 2015,BP2015-05471,685,11,-114.13185334509,50.9572018179158,"(50.9572018179158, -114.13185334509)",TRUE,616.313902614737,1232.62780522947
492,34 PANTON BA NW,34 PANTON BA NW,PANORAMA HILLS,02/12/2016 12:00:00 AM,February 12 2016,BP2016-00265,481,3,-114.082728031732,51.1720735894952,"(51.1720735894952, -114.082728031732)",TRUE,501.500329130488,1003.00065826098
773,76 BEACHAM RI NW,76 BEACHAM RI NW,BEDDINGTON HEIGHTS,12/01/2016 12:00:00 AM,December 01 2016,BP2016-08402,636,3,-114.093735577829,51.1283385060754,"(51.1283385060754, -114.093735577829)",FALSE,44.1652961523565,88.3305923047131
427,2772 SIGNAL HILL DR SW,2772 SIGNAL HILL DR SW,SIGNAL HILL,04/25/2016 12:00:00 AM,April 25 2016,BP2015-13772,515,6,-114.169822972551,51.028221316101,"(51.028221316101, -114.169822972551)",FALSE,392.562487826136,785.124975652272
528,38 CRANBERRY CL SE,38 CRANBERRY CL SE,CRANSTON,01/04/2016 12:00:00 AM,January 04 2016,BP2015-14270,472,12,-113.972910841147,50.886697634583,"(50.886697634583, -113.972910841147)",FALSE,690.728924252181,1381.45784850436
368,2418 32 ST SW,2418 32 ST SW,KILLARNEY/GLENGARRY,10/30/2015 12:00:00 AM,October 30 2015,BP2015-08881,511,6,-114.133734630927,51.0324388237089,"(51.0324388237089, -114.133734630927)",FALSE,530.770592902704,1061.54118580541
510,36 BERMUDA RD NW,36 BERMUDA RD NW,BEDDINGTON HEIGHTS,06/21/2011 12:00:00 AM,June 16 2011,BP2010-11071,25,3,-114.078865291235,51.1296229462589,"(51.1296229462589, -114.078865291235)",FALSE,332.006302264344,664.012604528688
13,1035G RUNDLE CR NE,1035G RUNDLE CR NE,RENFREW,12/06/2013 12:00:00 AM,December 05 2013,BP2012-04408,153,9,-114.040641312194,51.0618029452626,"(51.0618029452626, -114.040641312194)",FALSE,418.610091435045,837.220182870089
823,85R SADDLEMEAD CL NE,85 SADDLEMEAD CL NE,SADDLE RIDGE,10/08/2014 12:00:00 AM,September 16 2014,BP2014-00274,330,3,-113.945414356682,51.1316306289237,"(51.1316306289237, -113.945414356682)",FALSE,137.449133065097,274.898266130195
519,366 EVANSTON WY NW,366 EVANSTON WY NW,EVANSTON,12/21/2016 12:00:00 AM,December 21 2016,BP2015-14869,650,2,-114.099802985873,51.1781178402666,"(51.1781178402666, -114.099802985873)",FALSE,832.961112599433,1665.92222519887
569,43 SADDLESTONE DR NE,45 SADDLESTONE DR NE,SADDLE RIDGE,10/17/2016 12:00:00 AM,October 17 2016,BP2016-03199,607,3,-113.927820314685,51.1287316201842,"(51.1287316201842, -113.927820314685)",FALSE,154.473445466946,308.946890933891
193,1609 42 ST SW,1607 42 ST SW,ROSSCARROCK,09/13/2013 12:00:00 AM,September 12 2013,BP2013-13272,302,6,-114.148668019526,51.0391299237365,"(51.0391299237365, -114.148668019526)",TRUE,494.780242623229,989.560485246458
612,47G ELGIN MEADOWS RD SE,47G ELGIN MEADOWS RD SE,MCKENZIE TOWNE,01/10/2014 12:00:00 AM,January 09 2014,BP2012-11265,184,12,-113.955640934618,50.9071517510693,"(50.9071517510693, -113.955640934618)",FALSE,281.633119061039,563.266238122079
316,2142 22 AV SW,2212 RICHMOND RD SW,RICHMOND,05/08/2017 12:00:00 AM,May 08 2017,BP2016-11259,747,8,-114.110902489274,51.0339946647039,"(51.0339946647039, -114.110902489274)",FALSE,3.76346124141191,7.52692248282383
570,43 SKYVIEW POINT CM NE,41 SKYVIEW POINT CM NE,SKYVIEW RANCH,12/18/2012 12:00:00 AM,December 18 2012,BP2012-11574,187,3,-113.952809670526,51.1586560968609,"(51.1586560968609, -113.952809670526)",FALSE,840.957832938534,1681.91566587707
536,3G BENY-SUR-MER RD SW,3G BENY-SUR-MER RD SW,CFB - CURRIE,01/31/2012 12:00:00 AM,January 30 2012,BP2011-05875,84,8,-114.131444919565,51.020270545314,"(51.020270545314, -114.131444919565)",FALSE,377.498419097397,754.996838194794
440,288R EVERSYDE WY SW,288 EVERSYDE WY SW,EVERGREEN,04/23/2013 12:00:00 AM,April 23 2013,BP2012-16667,226,13,-114.110512545375,50.9130101176472,"(50.9130101176472, -114.110512545375)",FALSE,357.029218857257,714.058437714513
751,7243 BOWNESS RD NW,7243 BOWNESS RD NW,BOWNESS,08/06/2015 12:00:00 AM,July 15 2015,BP2014-01981,334,1,-114.190101756327,51.0886086629715,"(51.0886086629715, -114.190101756327)",FALSE,734.809478307328,1469.61895661466
490,336 NOLANCREST HT NW,336 NOLANCREST HT NW,NOLAN HILL,11/25/2016 12:00:00 AM,November 25 2016,BP2016-09124,634,2,-114.169298472342,51.1747939096062,"(51.1747939096062, -114.169298472342)",FALSE,303.690447566011,607.380895132021
553,416 38 ST SW,416 38 ST SW,SPRUCE CLIFF,10/01/2013 12:00:00 AM,September 30 2013,BP2011-14549,105,6,-114.142635453863,51.0497723482021,"(51.0497723482021, -114.142635453863)",FALSE,19.444062445178,38.8881248903561
460,31 RIVERCREST WY SE,31 RIVERCREST WY SE,RIVERBEND,05/10/2016 12:00:00 AM,May 03 2016,BP2015-12977,517,9,-114.002698456418,50.9777514249674,"(50.9777514249674, -114.002698456418)",FALSE,388.853951206693,777.707902413386
598,4625B MONTEREY AV NW,4625B MONTEREY AV NW,MONTGOMERY,02/23/2016 12:00:00 AM,February 23 2016,BP2015-04302,483,1,-114.163430958581,51.069727608896,"(51.069727608896, -114.163430958581)",FALSE,172.944329436512,345.888658873023
780,76G QUARRY DR SE,76G QUARRY DR SE,DOUGLASDALE/GLEN,11/20/2012 12:00:00 AM,November 20 2012,BP2012-07534,162,12,-114.01479813013,50.9589390033044,"(50.9589390033044, -114.01479813013)",FALSE,413.693031460362,827.386062920724
358,23G TOMMY PRINCE RD SW,23G TOMMY PRINCE RD SW,CFB - CURRIE,02/14/2012 12:00:00 AM,February 13 2012,BP2011-02080,51,8,-114.13040208176,51.0207861086215,"(51.0207861086215, -114.13040208176)",FALSE,834.493708149583,1668.98741629917
596,4607 4 ST NW,4607 4 ST NW,HIGHWOOD,11/06/2017 12:00:00 AM,November 06 2017,BP2016-04309,870,7,-114.071963603438,51.0928887497081,"(51.0928887497081, -114.071963603438)",FALSE,864.572965672746,1729.14593134549
806,8214 SADDLEBROOK DR NE,8214 SADDLEBROOK DR NE,SADDLE RIDGE,06/21/2013 12:00:00 AM,April 15 2013,BP2012-08819,171,3,-113.929286420838,51.1264309068993,"(51.1264309068993, -113.929286420838)",FALSE,470.722502971569,941.445005943138
281,201 12 ST NE,201 12 ST NE,BRIDGELAND/RIVERSIDE,03/17/2017 12:00:00 AM,September 06 2016,BP2014-11793,714,9,-114.034045013473,51.0533965959444,"(51.0533965959444, -114.034045013473)",FALSE,174.397346999987,348.794693999974
822,8528R 34 AV NW,8528 34 AV NW,BOWNESS,11/02/2012 12:00:00 AM,October 31 2012,BP2011-07372,68,1,-114.209924404912,51.0905168368207,"(51.0905168368207, -114.209924404912)",FALSE,819.902909837497,1639.80581967499
218,175 COPPERPOND PR SE,201 COPPERPOND PR SE,COPPERFIELD,04/13/2017 12:00:00 AM,April 13 2017,BP2016-13638,728,12,-113.91981911748,50.9165828629332,"(50.9165828629332, -113.91981911748)",TRUE,24.6164651101261,49.2329302202521
645,5205 20 ST SW,5205 20 ST SW,NORTH GLENMORE PARK,01/04/2017 12:00:00 AM,January 04 2017,BP2015-06524,809,11,-114.109379971948,51.0075389084363,"(51.0075389084363, -114.109379971948)",FALSE,672.658347301755,1345.31669460351
234,1816R 42 ST SE,1816 42 ST SE,FOREST LAWN,04/06/2017 12:00:00 AM,April 06 2017,BP2017-01385,721,9,-113.972564962098,51.0371054780446,"(51.0371054780446, -113.972564962098)",FALSE,149.964092468359,299.928184936719
426,276 EVERBROOK WY SW,276 EVERBROOK WY SW,EVERGREEN,01/27/2012 12:00:00 AM,January 26 2012,BP2012-00334,116,13,-114.112028763243,50.9210311282134,"(50.9210311282134, -114.112028763243)",FALSE,305.258042045001,610.516084090002
404,2628 30 ST SW,2626 30 ST SW,KILLARNEY/GLENGARRY,02/05/2013 12:00:00 AM,February 05 2013,BP2012-10727,179,6,-114.130842963486,51.0306496649772,"(51.0306496649772, -114.130842963486)",FALSE,855.059606020635,1710.11921204127
123,137R COUNTRY HILLS PL NW,137 COUNTRY HILLS PL NW,COUNTRY HILLS,03/24/2015 12:00:00 AM,March 24 2015,BP2014-14058,388,3,-114.06435612125,51.1472320796514,"(51.1472320796514, -114.06435612125)",TRUE,331.762250053679,663.524500107358
64,1163 15 AV NE,1163 15 AV NE,RENFREW,03/28/2011 12:00:00 AM,March 25 2011,BP2011-02531,54,9,-114.034690234304,51.0652410874019,"(51.0652410874019, -114.034690234304)",FALSE,855.332916990645,1710.66583398129
168,15136G PRESTWICK BV SE,15136G PRESTWICK BV SE,MCKENZIE TOWNE,04/21/2011 12:00:00 AM,April 18 2011,BP2010-09782,21,12,-113.965364024056,50.9210957601869,"(50.9210957601869, -113.965364024056)",FALSE,347.7296804552,695.459360910401
623,4904B VARSITY DR NW,4904 VARSITY DR NW,VARSITY,03/07/2017 12:00:00 AM,March 07 2017,BP2016-13865,708,1,-114.157722989029,51.0941262743855,"(51.0941262743855, -114.157722989029)",FALSE,114.29966607785,228.599332155701
543,407G 37 ST SW,407G 37 ST SW,SPRUCE CLIFF,12/20/2011 12:00:00 AM,December 19 2011,BP2009-04382,2,6,-114.141920478626,51.0501324391647,"(51.0501324391647, -114.141920478626)",FALSE,500.893563901221,1001.78712780244
321,218 COVECREEK CO NE,218 COVECREEK CO NE,COVENTRY HILLS,01/31/2012 12:00:00 AM,January 31 2012,BP2012-00844,119,3,-114.054268343523,51.1727552981886,"(51.1727552981886, -114.054268343523)",FALSE,65.0345361643635,130.069072328727
453,3034R DOVER RD SE,3034 DOVER RD SE,DOVER,02/23/2017 12:00:00 AM,February 23 2017,BP2017-00731,703,9,-113.972682213599,51.0268135867724,"(51.0268135867724, -113.972682213599)",FALSE,43.1580254931739,86.3160509863479
787,79G ELGIN MEADOWS RD SE,79G ELGIN MEADOWS RD SE,MCKENZIE TOWNE,01/16/2012 12:00:00 AM,January 12 2012,BP2011-07532,57,12,-113.955836952551,50.9063542552467,"(50.9063542552467, -113.955836952551)",FALSE,975.761041683075,1951.52208336615
502,351 DEERVIEW DR SE,351 DEERVIEW DR SE,DEER RIDGE,01/16/2015 12:00:00 AM,January 16 2015,BP2014-02975,353,12,-114.02058571909,50.9275261916384,"(50.9275261916384, -114.02058571909)",FALSE,993.461938834812,1986.92387766962
408,265 WALDEN SQ SE,265 WALDEN SQ SE,WALDEN,09/22/2017 12:00:00 AM,September 22 2017,BP2017-03242,837,14,-114.028423996189,50.8754887188532,"(50.8754887188532, -114.028423996189)",FALSE,247.796281329998,495.592562659996
188,15G TOMMY PRINCE RD SW,15G TOMMY PRINCE RD SW,CFB - CURRIE,10/17/2011 12:00:00 AM,August 10 2011,BP2011-00300,43,8,-114.130778591314,51.0207943629996,"(51.0207943629996, -114.130778591314)",FALSE,272.502686631911,545.005373263822
377,248 SADDLEBROOK WY NE,250 SADDLEBROOK WY NE,SADDLE RIDGE,03/24/2014 12:00:00 AM,March 24 2014,BP2013-00695,201,3,-113.932341834801,51.1331472285539,"(51.1331472285539, -113.932341834801)",FALSE,118.659261349513,237.318522699025
566,42R WALDEN CO SE,42 WALDEN CO SE,WALDEN,07/05/2013 12:00:00 AM,July 05 2013,BP2013-02672,250,14,-114.031271790899,50.8737284235878,"(50.8737284235878, -114.031271790899)",FALSE,58.0077707811848,116.01554156237
808,825 4 AV NE,440 7A ST NE,BRIDGELAND/RIVERSIDE,12/28/2012 12:00:00 AM,December 28 2012,BP2012-07413,156,9,-114.044046698087,51.055903031414,"(51.055903031414, -114.044046698087)",FALSE,583.972463856259,1167.94492771252
320,217G 21 AV NE,217G 21 AV NE,TUXEDO PARK,01/17/2017 12:00:00 AM,January 17 2017,BP2013-01594,834,7,-114.058792299798,51.0711550497443,"(51.0711550497443, -114.058792299798)",FALSE,653.18691331423,1306.37382662846
191,16 FONDA ME SE,16 FONDA ME SE,FOREST HEIGHTS,04/25/2016 12:00:00 AM,March 31 2016,BP2015-16244,500,9,-113.981005282219,51.0473592214735,"(51.0473592214735, -113.981005282219)",FALSE,348.855398151999,697.710796303998
446,30 CITADEL FOREST PL NW,30 CITADEL FOREST PL NW,CITADEL,12/05/2014 12:00:00 AM,October 09 2014,BP2014-03974,342,2,-114.198280405559,51.1468095955413,"(51.1468095955413, -114.198280405559)",FALSE,861.193448765474,1722.38689753095
373,243 AUBURN BAY BV SE,243 AUBURN BAY BV SE,AUBURN BAY,02/15/2013 12:00:00 AM,February 14 2013,BP2012-08513,169,12,-113.964999093818,50.8855624336692,"(50.8855624336692, -113.964999093818)",FALSE,272.83065641791,545.661312835821
689,608 COPPERFIELD BV SE,608 COPPERFIELD BV SE,COPPERFIELD,04/19/2017 12:00:00 AM,April 19 2017,BP2016-14182,732,12,-113.944330995721,50.9095400027971,"(50.9095400027971, -113.944330995721)",FALSE,714.868448283525,1429.73689656705
252,190 ERIN CI SE,190 ERIN CI SE,ERIN WOODS,04/25/2016 12:00:00 AM,April 01 2016,BP2016-02038,504,9,-113.964122462372,51.0163274214673,"(51.0163274214673, -113.964122462372)",FALSE,81.8319701816917,163.663940363383
650,527 33 AV NE,527 33 AV NE,WINSTON HEIGHTS/MOUNTVIEW,08/29/2016 12:00:00 AM,August 29 2016,BP2016-06125,589,9,-114.051275407038,51.0821663760977,"(51.0821663760977, -114.051275407038)",FALSE,423.73653518989,847.47307037978
567,43 BUTLER CR NW,43 BUTLER CR NW,BRENTWOOD,09/03/2015 12:00:00 AM,September 03 2015,BP2015-06496,431,1,-114.127498825656,51.0912746519989,"(51.0912746519989, -114.127498825656)",FALSE,86.7250565740104,173.450113148021
852,96 TARALEA MR NE,96 TARALEA GD NE,TARADALE,10/26/2011 12:00:00 AM,October 24 2011,BP2011-04784,83,3,-113.945619022995,51.1173114162747,"(51.1173114162747, -113.945619022995)",FALSE,569.167886440452,1138.3357728809
185,158 SKYVIEW POINT CR NE,158 SKYVIEW POINT CR NE,SKYVIEW RANCH,09/27/2013 12:00:00 AM,September 26 2013,BP2013-02859,251,3,-113.952739998592,51.163715883946,"(51.163715883946, -113.952739998592)",FALSE,269.821779298279,539.643558596559
232,180 FALCONRIDGE CR NE,180 FALCONRIDGE CR NE,FALCONRIDGE,06/02/2015 12:00:00 AM,May 08 2015,BP2015-00649,427,3,-113.950996316483,51.0966878701561,"(51.0966878701561, -113.950996316483)",FALSE,903.815928121473,1807.63185624295
233,1811 4 ST NW,1811 4 ST NW,MOUNT PLEASANT,08/21/2014 12:00:00 AM,July 28 2014,BP2013-18912,332,7,-114.07185168968,51.0684024612406,"(51.0684024612406, -114.07185168968)",FALSE,379.188578516877,758.377157033754
103,128 CAPRI AV NW,128 CAPRI AV NW,CHARLESWOOD,12/16/2016 12:00:00 AM,December 16 2016,BP2015-06396,662,7,-114.108539439058,51.0902346361538,"(51.0902346361538, -114.108539439058)",FALSE,592.885589980736,1185.77117996147
171,152 COPPERFIELD CM SE,152 COPPERFIELD CM SE,COPPERFIELD,01/18/2013 12:00:00 AM,January 16 2013,BP2011-06135,79,12,-113.934560320897,50.9085127608947,"(50.9085127608947, -113.934560320897)",TRUE,605.120784569697,1210.24156913939
861,18 BRIDLERIDGE WY SW,18 BRIDLERIDGE WY SW,BRIDLEWOOD,,May 10 2017,PE2017-00238,767,13,-114.110044973324,50.9060778637799,"(50.9060778637799, -114.110044973324)",FALSE,372.482564846256,744.965129692512
349,230R DEER RIDGE PL SE,230 DEER RIDGE PL SE,DEER RIDGE,05/01/2017 12:00:00 AM,May 01 2017,BP2017-01332,744,12,-114.022225975812,50.92716686074,"(50.92716686074, -114.022225975812)",FALSE,3.97426460491745,7.94852920983491
357,23G BENY-SUR-MER RD SW,23G BENY-SUR-MER RD SW,CFB - CURRIE,07/27/2011 12:00:00 AM,July 26 2011,BP2010-11551,36,8,-114.131827467757,51.0198513256637,"(51.0198513256637, -114.131827467757)",FALSE,894.238855044494,1788.47771008899
532,39 PASADENA GD NE,39 PASADENA GD NE,MONTEREY PARK,04/07/2017 12:00:00 AM,April 07 2017,BP2016-11078,723,5,-113.934567380397,51.0771664684352,"(51.0771664684352, -113.934567380397)",TRUE,81.6162744273892,163.232548854778
535,397 HARVEST ROSE CI NE,397 HARVEST ROSE CI NE,HARVEST HILLS,08/05/2016 12:00:00 AM,August 05 2016,BP2013-17131,584,3,-114.057302903157,51.1422978256213,"(51.1422978256213, -114.057302903157)",FALSE,475.60573793409,951.21147586818
246,187R MAHOGANY PS SE,187 MAHOGANY PS SE,MAHOGANY,05/26/2017 12:00:00 AM,May 26 2017,BP2016-14549,764,12,-113.940860382444,50.8884961814481,"(50.8884961814481, -113.940860382444)",FALSE,852.078102133886,1704.15620426777
390,256R SAGE BANK GV NW,256 SAGE BANK GV NW,NOLAN HILL,06/01/2012 12:00:00 AM,May 30 2012,BP2012-02702,140,2,-114.154872369161,51.1766529930394,"(51.1766529930394, -114.154872369161)",TRUE,581.650164565405,1163.30032913081
661,55 SKYVIEW SHORES GD NE,55 SKYVIEW SHORES GD NE,SKYVIEW RANCH,12/14/2011 12:00:00 AM,November 25 2011,BP2011-06187,82,3,-113.963699851951,51.1588725770996,"(51.1588725770996, -113.963699851951)",FALSE,246.561709598587,493.123419197174
632,51 RANCHERO RI NW,35 RANCHERO RI NW,RANCHLANDS,01/12/2017 12:00:00 AM,January 12 2017,BP2016-08497,661,2,-114.188543416506,51.1194363240943,"(51.1194363240943, -114.188543416506)",FALSE,626.886217992998,1253.772435986
97,125 EVANSBROOKE WY NW,125 EVANSBROOKE WY NW,EVANSTON,07/15/2016 12:00:00 AM,July 15 2016,BP2015-12394,552,3,-114.123006487256,51.164699953803,"(51.164699953803, -114.123006487256)",FALSE,963.773695398676,1927.54739079735
448,30 MONTROSE CR NE,30 MONTROSE CR NE,WINSTON HEIGHTS/MOUNTVIEW,02/27/2015 12:00:00 AM,February 05 2015,BP2014-06724,374,7,-114.046695303092,51.0698121344604,"(51.0698121344604, -114.046695303092)",FALSE,104.618140593765,209.23628118753
267,2 SILVERADO RIDGE CR SW,39 SILVERADO RIDGE LI SW,SILVERADO,11/06/2017 12:00:00 AM,November 06 2017,BP2017-01000,868,13,-114.086574082194,50.8876495548649,"(50.8876495548649, -114.086574082194)",FALSE,724.629284776811,1449.25856955362
257,192 SUNVALE CR SE,192 SUNVALE CR SE,SUNDANCE,04/30/2014 12:00:00 AM,April 30 2014,BP2014-03292,346,14,-114.050340283936,50.9012186546254,"(50.9012186546254, -114.050340283936)",FALSE,626.467634336929,1252.93526867386
397,261 WALDEN SQ SE,261 WALDEN SQ SE,WALDEN,05/10/2016 12:00:00 AM,March 16 2016,BP2015-15740,495,14,-114.02841367695,50.8756230588626,"(50.8756230588626, -114.02841367695)",FALSE,422.690513421769,845.381026843539
762,7426 21 ST SE,7424 21 ST SE,OGDEN,11/29/2016 12:00:00 AM,November 29 2016,BP2016-09251,635,9,-114.008463103649,50.986043998316,"(50.986043998316, -114.008463103649)",FALSE,186.202097836953,372.404195673905
304,21 REDSTONE MR NE,21 REDSTONE MR NE,REDSTONE,02/19/2016 12:00:00 AM,February 19 2016,BP2015-06137,487,3,-113.960587608878,51.1719000214561,"(51.1719000214561, -113.960587608878)",FALSE,846.271677949607,1692.54335589921
173,153 HOWSE AV NE,153 HOWSE AV NE,LIVINGSTON,10/12/2017 12:00:00 AM,October 12 2017,BP2017-05250,847,3,-114.067755627534,51.1874139467104,"(51.1874139467104, -114.067755627534)",FALSE,849.677255591717,1699.35451118343
212,1726 45 ST SE,1726 45 ST SE,FOREST LAWN,01/17/2012 12:00:00 AM,January 11 2012,BP2011-00133,41,9,-113.968284634064,51.0384074762749,"(51.0384074762749, -113.968284634064)",FALSE,488.966915909081,977.933831818162
648,525 CRANFORD DR SE,525 CRANFORD DR SE,CRANSTON,06/19/2014 12:00:00 AM,June 13 2014,BP2014-01599,340,12,-113.970207659267,50.8706932200761,"(50.8706932200761, -113.970207659267)",FALSE,116.651729734969,233.303459469938
665,56 WINSTON DR SW,56 WINSTON DR SW,WESTGATE,06/06/2016 12:00:00 AM,May 20 2016,BP2015-13323,527,6,-114.16361291305,51.0495483958836,"(51.0495483958836, -114.16361291305)",FALSE,462.42401299299,924.848025985979
641,51G HONG KONG RD SW,51G HONG KONG RD SW,CFB - CURRIE,07/09/2013 12:00:00 AM,July 08 2013,BP2012-13593,196,8,-114.132441409312,51.0170123515534,"(51.0170123515534, -114.132441409312)",FALSE,400.427256384663,800.854512769327
374,243 AUBURN GLEN DR SE,243 AUBURN GLEN DR SE,AUBURN BAY,03/31/2017 12:00:00 AM,March 31 2017,BP2016-11417,720,12,-113.951679972493,50.9000235562911,"(50.9000235562911, -113.951679972493)",FALSE,678.509059411133,1357.01811882227
451,303 COVEPARK RI NE,303 COVEPARK RI NE,COVENTRY HILLS,03/26/2015 12:00:00 AM,March 04 2015,BP2014-01730,331,3,-114.04967814983,51.1699635237662,"(51.1699635237662, -114.04967814983)",FALSE,427.712985276784,855.425970553568
647,5227 23 AV NW,5227 23 AV NW,MONTGOMERY,12/19/2014 12:00:00 AM,December 19 2014,BP2014-03080,660,1,-114.162000332812,51.080370170208,"(51.080370170208, -114.162000332812)",FALSE,277.577586407982,555.155172815964
226,179 ASPEN ACRES MR SW,179 ASPEN ACRES MR SW,ASPEN WOODS,11/01/2017 12:00:00 AM,November 01 2017,BP2017-11904,866,6,-114.214336695319,51.0519716373271,"(51.0519716373271, -114.214336695319)",FALSE,873.808051726795,1747.61610345359
848,934 RUNDLE CR NE,934 RUNDLE CR NE,RENFREW,10/27/2015 12:00:00 AM,September 18 2015,BP2014-12367,830,9,-114.038069568658,51.060768906947,"(51.060768906947, -114.038069568658)",FALSE,745.386953305532,1490.77390661106
211,171 COVERTON CL NE,171 COVERTON CL NE,COVENTRY HILLS,04/20/2016 12:00:00 AM,April 20 2016,BP2016-01759,512,3,-114.039725891722,51.1639509120005,"(51.1639509120005, -114.039725891722)",TRUE,217.141541215253,434.283082430505
179,154 SKYVIEW SHORES CR NE,154 SKYVIEW SHORES CR NE,SKYVIEW RANCH,04/03/2014 12:00:00 AM,February 12 2014,BP2013-02421,253,3,-113.967964468075,51.1592691923906,"(51.1592691923906, -113.967964468075)",FALSE,283.256212445379,566.512424890758
851,96 ROYAL OAK TC NW,96 ROYAL OAK TC NW,ROYAL OAK,06/08/2012 12:00:00 AM,June 08 2012,BP2011-15453,111,1,-114.222925535109,51.1535607818435,"(51.1535607818435, -114.222925535109)",FALSE,622.40471817801,1244.80943635602
759,7415 35 AV NW,7415 35 AV NW,BOWNESS,01/11/2012 12:00:00 AM,January 10 2012,BP2011-10162,86,1,-114.194406104709,51.0845562115072,"(51.0845562115072, -114.194406104709)",FALSE,774.399117755957,1548.79823551191
277,2002 38 ST SE,2002 38 ST SE,FOREST LAWN,01/25/2017 12:00:00 AM,January 25 2017,BP2016-03125,670,9,-113.978334463702,51.0361265380115,"(51.0361265380115, -113.978334463702)",TRUE,642.955024743909,1285.91004948782
653,532R 11 AV NE,532 11 AV NE,RENFREW,10/07/2012 12:00:00 AM,October 05 2012,BP2012-02180,132,9,-114.05139629126,51.0625847892016,"(51.0625847892016, -114.05139629126)",FALSE,123.926819450507,247.853638901014
369,2420 6 ST NE,2420 6 ST NE,WINSTON HEIGHTS/MOUNTVIEW,08/06/2009 12:00:00 AM,July 29 2009,BP2009-06206,3,7,-114.047978321735,51.0738100770259,"(51.0738100770259, -114.047978321735)",FALSE,670.867748128022,1341.73549625604
786,7903G 47 AV NW,7903G 47 AV NW,BOWNESS,02/12/2013 12:00:00 AM,February 12 2013,BP2009-10973,6,1,-114.199662893659,51.0946145478711,"(51.0946145478711, -114.199662893659)",FALSE,840.836867394479,1681.67373478896
583,4416R 33 AV SW,4416 33 AV SW,GLENBROOK,03/15/2013 12:00:00 AM,March 13 2013,BP2012-11806,198,6,-114.150576525268,51.0240544670311,"(51.0240544670311, -114.150576525268)",FALSE,356.955145424227,713.910290848454
488,332 SADDLEMONT BV NE,332 SADDLEMONT BV NE,SADDLE RIDGE,07/20/2012 12:00:00 AM,July 20 2012,BP2012-03451,147,3,-113.932933685906,51.129493602495,"(51.129493602495, -113.932933685906)",FALSE,477.375293235133,954.750586470266
748,716R ALDERWOOD PL SE,716 ALDERWOOD PL SE,ACADIA,10/20/2017 12:00:00 AM,October 20 2017,BP2017-08339,853,9,-114.047419282519,50.974411168224,"(50.974411168224, -114.047419282519)",FALSE,673.26958096641,1346.53916193282
739,7 NOLANCREST MR NW,7 NOLANCREST MR NW,NOLAN HILL,12/20/2016 12:00:00 AM,December 20 2016,BP2016-11043,645,2,-114.169341834202,51.1776600352213,"(51.1776600352213, -114.169341834202)",FALSE,944.479471716748,1888.9589434335
799,812R 40 AV NW,812 40 AV NW,HIGHWOOD,10/04/2016 12:00:00 AM,October 04 2016,BP2016-00932,599,7,-114.078117185199,51.088981461558,"(51.088981461558, -114.078117185199)",FALSE,897.051316109751,1794.1026322195
308,2115 5 ST SW,2115 5 ST SW,CLIFF BUNGALOW,05/12/2014 12:00:00 AM,April 25 2014,BP2012-17177,233,8,-114.074513542384,51.0341854360123,"(51.0341854360123, -114.074513542384)",FALSE,781.578865032177,1563.15773006435
305,21 STRADWICK RI SW,23 STRADWICK RI SW,STRATHCONA PARK,02/01/2017 12:00:00 AM,February 01 2017,BP2016-12123,681,6,-114.169359955312,51.0506923790137,"(51.0506923790137, -114.169359955312)",FALSE,557.777881803203,1115.55576360641
589,450 TARALAKE WY NE,450 TARALAKE WY NE,TARADALE,07/19/2013 12:00:00 AM,July 17 2013,BP2012-04615,152,3,-113.924783766273,51.1201463717998,"(51.1201463717998, -113.924783766273)",FALSE,174.851789631567,349.703579263134
578,439 COPPERPOND BV SE,439 COPPERPOND BV SE,COPPERFIELD,12/09/2015 12:00:00 AM,December 08 2015,BP2015-05264,451,12,-113.925731696911,50.9248517970412,"(50.9248517970412, -113.925731696911)",FALSE,307.916541676081,615.833083352162
194,161 HARVEST GOLD CI NE,161 HARVEST GOLD CI NE,HARVEST HILLS,01/14/2016 12:00:00 AM,January 14 2016,BP2015-12569,463,3,-114.065478281745,51.1442485170835,"(51.1442485170835, -114.065478281745)",FALSE,890.106509226955,1780.21301845391
155,149 SADDLECREST PL NE,149 SADDLECREST PL NE,SADDLE RIDGE,02/03/2014 12:00:00 AM,February 03 2014,BP2013-02867,267,3,-113.945394181011,51.1365264342561,"(51.1365264342561, -113.945394181011)",FALSE,753.177078568543,1506.35415713709
704,6235G 18 ST SE,6235G 18 ST SE,OGDEN,04/13/2012 12:00:00 AM,April 11 2012,BP2011-14228,104,9,-114.016928090605,50.9982699362986,"(50.9982699362986, -114.016928090605)",FALSE,314.774966052718,629.549932105435
483,32R LYNNDALE CR SE,32 LYNNDALE CR SE,OGDEN,09/20/2017 12:00:00 AM,September 20 2017,BP2017-00615,833,9,-114.008487997627,50.9911085194544,"(50.9911085194544, -114.008487997627)",FALSE,509.507326666466,1019.01465333293
359,23R BEACHAM RI NW,23 BEACHAM RI NW,BEDDINGTON HEIGHTS,08/10/2017 12:00:00 AM,August 10 2017,BP2016-00779,805,3,-114.095740209372,51.1284479667994,"(51.1284479667994, -114.095740209372)",FALSE,488.07816413287,976.156328265741
210,1705 45 ST SE,1705 45 ST SE,FOREST LAWN,10/25/2016 12:00:00 AM,October 25 2016,BP2016-08351,614,9,-113.968897653647,51.0390738258933,"(51.0390738258933, -113.968897653647)",FALSE,141.769210109229,283.538420218458
639,515 PANATELLA SQ NW,515 PANATELLA SQ NW,PANORAMA HILLS,04/30/2014 12:00:00 AM,April 30 2014,BP2014-02804,350,3,-114.074946791603,51.1689631931866,"(51.1689631931866, -114.074946791603)",FALSE,339.242197756494,678.484395512987
643,52 EVERGLEN CL SW,52 EVERGLEN CL SW,EVERGREEN,03/30/2012 12:00:00 AM,March 29 2012,BP2011-14836,108,13,-114.12519057293,50.9135203333803,"(50.9135203333803, -114.12519057293)",TRUE,182.97832850792,365.95665701584
235,1818G BROADVIEW RD NW,1818G BROADVIEW RD NW,HILLHURST,01/04/2012 12:00:00 AM,October 28 2011,BP2011-01378,50,7,-114.101645552845,51.0505903209079,"(51.0505903209079, -114.101645552845)",TRUE,350.714546479076,701.429092958152
664,56 ERIN MEADOW WY SE,56 ERIN MEADOW WY SE,ERIN WOODS,05/12/2017 12:00:00 AM,May 12 2017,BP2017-04529,751,9,-113.961042254256,51.0234526722977,"(51.0234526722977, -113.961042254256)",FALSE,133.185469450813,266.370938901627
287,2029 38 ST SE,2029 38 ST SE,FOREST LAWN,06/23/2014 12:00:00 AM,June 23 2014,BP2014-05323,341,9,-113.978989895971,51.0351653120884,"(51.0351653120884, -113.978989895971)",FALSE,516.65026815151,1033.30053630302
468,315G MARQUIS CO SE,315G MARQUIS CO SE,MAHOGANY,03/09/2017 12:00:00 AM,March 09 2017,BP2016-10216,709,12,-113.909939962177,50.9014684266939,"(50.9014684266939, -113.909939962177)",FALSE,193.523604265172,387.047208530343
469,316G SILVER BROOK WY NW,316G SILVER BROOK WY NW,SILVER SPRINGS,02/10/2017 12:00:00 AM,February 10 2017,BP2016-01829,691,1,-114.186823966344,51.1099262609009,"(51.1099262609009, -114.186823966344)",FALSE,776.508320723974,1553.01664144795
400,2619 5 AV NW,2617 5 AV NW,WEST HILLHURST,03/09/2017 12:00:00 AM,March 09 2017,BP2017-01591,710,7,-114.121365513954,51.0567113726844,"(51.0567113726844, -114.121365513954)",FALSE,503.639681107583,1007.27936221517
497,34R WALDEN CO SE,34 WALDEN CO SE,WALDEN,10/09/2015 12:00:00 AM,October 09 2015,BP2012-13834,445,14,-114.03159156732,50.8738373951469,"(50.8738373951469, -114.03159156732)",FALSE,69.4182844895415,138.836568979083
239,1832 17 AV NW,1832 17 AV NW,CAPITOL HILL,07/06/2016 12:00:00 AM,July 06 2016,BP2015-16072,547,7,-114.103867761876,51.0680312703696,"(51.0680312703696, -114.103867761876)",FALSE,819.67506582865,1639.3501316573
353,2356R 23 ST NW,2356 23 ST NW,BANFF TRAIL,04/03/2012 12:00:00 AM,April 03 2012,BP2011-07128,66,7,-114.113746619807,51.0715865445812,"(51.0715865445812, -114.113746619807)",FALSE,777.048267202196,1554.09653440439
225,178R CRANFIELD GR SE,178 CRANFIELD GR SE,CRANSTON,05/13/2016 12:00:00 AM,April 25 2016,BP2014-18323,583,12,-113.981885056715,50.8885672823701,"(50.8885672823701, -113.981885056715)",FALSE,895.154761332958,1790.30952266592
572,430G 32 AV NE,430G 32 AV NE,WINSTON HEIGHTS/MOUNTVIEW,01/12/2015 12:00:00 AM,December 19 2014,BP2013-13248,296,9,-114.052806346723,51.0818623559925,"(51.0818623559925, -114.052806346723)",FALSE,601.024995166795,1202.04999033359
98,125 SADDLELAKE GR NE,125 SADDLELAKE GR NE,SADDLE RIDGE,02/13/2014 12:00:00 AM,February 13 2014,BP2013-11755,304,3,-113.930913647501,51.1284092782658,"(51.1284092782658, -113.930913647501)",FALSE,308.58986484394,617.17972968788
730,67G DIEPPE DR SW,67G DIEPPE DR SW,CFB - CURRIE,08/23/2013 12:00:00 AM,August 22 2013,BP2012-15914,220,8,-114.130443602352,51.0179215057554,"(51.0179215057554, -114.130443602352)",FALSE,855.527456088095,1711.05491217619
209,16R WALDEN VW SE,16 WALDEN VW SE,WALDEN,10/30/2012 12:00:00 AM,October 29 2012,BP2012-07031,158,14,-114.030362390687,50.8763854591888,"(50.8763854591888, -114.030362390687)",FALSE,119.293824875735,238.58764975147
552,415 EVANSGLEN DR NW,415 EVANSGLEN DR NW,EVANSTON,10/27/2017 12:00:00 AM,October 27 2017,BP2017-07316,859,2,-114.098396432308,51.1783569844821,"(51.1783569844821, -114.098396432308)",FALSE,746.495681060108,1492.99136212022
781,77 REDSTONE GD NE,79 REDSTONE GD NE,REDSTONE,02/17/2017 12:00:00 AM,February 17 2017,BP2016-09664,700,3,-113.961271470849,51.1715221588916,"(51.1715221588916, -113.961271470849)",FALSE,526.857881072471,1053.71576214494
119,135 FALSBY RD NE,135 FALSBY RD NE,FALCONRIDGE,07/14/2014 12:00:00 AM,July 04 2014,BP2014-04968,358,3,-113.95408607149,51.0996304212028,"(51.0996304212028, -113.95408607149)",FALSE,455.966750808424,911.933501616849
513,36 TARARIDGE DR NE,36 TARARIDGE DR NE,TARADALE,02/25/2016 12:00:00 AM,January 29 2016,BP2015-00057,485,3,-113.940265264044,51.1124753341744,"(51.1124753341744, -113.940265264044)",TRUE,659.92666675975,1319.8533335195
505,3556 2 AV SW,3556 2 AV SW,SPRUCE CLIFF,12/21/2009 12:00:00 AM,December 09 2009,BP2009-08153,4,6,-114.138878544584,51.0513769094678,"(51.0513769094678, -114.138878544584)",FALSE,753.370095405027,1506.74019081005
144,1439G CHILD AV NE,1439G CHILD AV NE,RENFREW,04/23/2015 12:00:00 AM,April 01 2015,BP2013-09205,290,9,-114.029880373587,51.0539472853044,"(51.0539472853044, -114.029880373587)",FALSE,726.360163772923,1452.72032754585
278,2006 23 AV NW,2006 23 AV NW,BANFF TRAIL,01/29/2016 12:00:00 AM,January 29 2016,BP2015-13418,471,7,-114.106763060204,51.0734607847274,"(51.0734607847274, -114.106763060204)",FALSE,415.184923558714,830.369847117427
378,249 SILVERADO WY SW,249 SILVERADO WY SW,SILVERADO,02/17/2016 12:00:00 AM,January 12 2016,BP2011-10498,488,13,-114.079947063094,50.8812870629805,"(50.8812870629805, -114.079947063094)",FALSE,19.5633199052814,39.1266398105628
61,116 6A ST NE,116 6A ST NE,BRIDGELAND/RIVERSIDE,07/05/2011 12:00:00 AM,June 30 2011,BP2011-02359,53,9,-114.046685859216,51.0529772830643,"(51.0529772830643, -114.046685859216)",FALSE,950.18249831433,1900.36499662866
626,5020 VICEROY DR NW,5020 VICEROY DR NW,VARSITY,09/05/2017 12:00:00 AM,September 05 2017,BP2016-11976,823,1,-114.159338623828,51.0985035048414,"(51.0985035048414, -114.159338623828)",FALSE,694.710341708731,1389.42068341746
658,55 ABERDARE CR NE,55 ABERDARE CR NE,ABBEYDALE,11/10/2011 12:00:00 AM,November 09 2011,BP2011-02140,52,10,-113.925615478222,51.0578141495076,"(51.0578141495076, -113.925615478222)",FALSE,999.546564994994,1999.09312998999
835,901G 18 AV NW,901G 18 AV NW,MOUNT PLEASANT,01/27/2017 12:00:00 AM,January 27 2017,BP2016-04397,674,7,-114.081621421493,51.0683699690034,"(51.0683699690034, -114.081621421493)",FALSE,803.785722583575,1607.57144516715
414,27 STRATHCLAIR RI SW,27 STRATHCLAIR RI SW,STRATHCONA PARK,02/24/2015 12:00:00 AM,February 24 2015,BP2014-14678,382,6,-114.174335025991,51.0516288424826,"(51.0516288424826, -114.174335025991)",FALSE,309.485342400323,618.970684800646
670,56R HAZELWOOD CR SW,56 HAZELWOOD CR SW,HAYSBORO,11/15/2016 12:00:00 AM,November 15 2016,BP2016-02302,627,11,-114.080045156684,50.9652632850268,"(50.9652632850268, -114.080045156684)",TRUE,809.809367083441,1619.61873416688
7,101 SADDLELAKE GD NE,101 SADDLELAKE GD NE,SADDLE RIDGE,04/21/2016 12:00:00 AM,March 30 2016,BP2015-15546,499,3,-113.931383616972,51.1316456320501,"(51.1316456320501, -113.931383616972)",FALSE,358.519122909441,717.038245818883
228,17G MARY DOVER DR SW,17G MARY DOVER DR SW,CFB - CURRIE,01/08/2013 12:00:00 AM,January 08 2013,BP2010-12480,32,8,-114.131119540877,51.0191558818923,"(51.0191558818923, -114.131119540877)",FALSE,688.308712235082,1376.61742447016
709,63G DIEPPE DR SW,63G DIEPPE DR SW,CFB - CURRIE,09/20/2013 12:00:00 AM,September 18 2013,BP2012-17265,235,8,-114.130603891316,51.0178781128481,"(51.0178781128481, -114.130603891316)",FALSE,562.447439532642,1124.89487906528
268,2 SKYVIEW POINT HE NE,126 SKYVIEW RANCH ST NE,SKYVIEW RANCH,12/14/2012 12:00:00 AM,December 13 2012,BP2012-11573,186,3,-113.955220920408,51.1612352761914,"(51.1612352761914, -113.955220920408)",FALSE,768.0456015587,1536.0912031174
336,224 12A ST NE,224 12A ST NE,BRIDGELAND/RIVERSIDE,02/08/2013 12:00:00 AM,February 06 2013,BP2012-16633,225,9,-114.0325770282,51.054625792018,"(51.054625792018, -114.0325770282)",FALSE,477.070259412167,954.140518824333
686,602G 22 AV NE,602G 22 AV NE,WINSTON HEIGHTS/MOUNTVIEW,07/03/2017 12:00:00 AM,June 28 2017,BP2016-08425,782,7,-114.050193046794,51.0728105544192,"(51.0728105544192, -114.050193046794)",TRUE,663.201759622387,1326.40351924477
719,66 ABERDARE WY NE,66 ABERDARE WY NE,ABBEYDALE,07/28/2016 12:00:00 AM,July 28 2016,BP2015-08570,559,10,-113.923881678491,51.0588339681434,"(51.0588339681434, -113.923881678491)",TRUE,572.058232250117,1144.11646450023
113,131B 27 AV NW,131 27 AV NW,TUXEDO PARK,05/02/2017 12:00:00 AM,May 02 2017,BP2016-14711,745,7,-114.064476297714,51.0767408617608,"(51.0767408617608, -114.064476297714)",FALSE,5.67097473509981,11.3419494701996
273,20 TOMMY PRINCE RD SW,20 TOMMY PRINCE RD SW,CFB - CURRIE,08/04/2017 12:00:00 AM,August 04 2017,BP2017-02560,800,8,-114.130240866378,51.0213673334934,"(51.0213673334934, -114.130240866378)",FALSE,958.936749669022,1917.87349933804
745,712G SALISBURY AV SE,712G SALISBURY AV SE,RAMSAY,11/26/2014 12:00:00 AM,November 26 2014,BP2014-03878,360,9,-114.044914471845,51.0393484116386,"(51.0393484116386, -114.044914471845)",FALSE,198.802518287396,397.605036574793
737,69 CAMBRIAN DR NW,67 CAMBRIAN DR NW,ROSEMONT,06/30/2017 12:00:00 AM,June 30 2017,BP2017-00307,784,7,-114.089452840251,51.0807602829222,"(51.0807602829222, -114.089452840251)",FALSE,921.969305332233,1843.93861066447
541,4017 CENTRE A ST NE,4019 CENTRE A ST NE,HIGHLAND PARK,10/18/2016 12:00:00 AM,October 18 2016,BP2016-08443,608,4,-114.061356916057,51.0884360138545,"(51.0884360138545, -114.061356916057)",FALSE,82.8847389629034,165.769477925807
331,222 SADDLECREEK CO NE,222 SADDLECREEK CO NE,SADDLE RIDGE,11/18/2016 12:00:00 AM,November 18 2016,BP2016-06809,630,3,-113.957723740934,51.1267369049352,"(51.1267369049352, -113.957723740934)",FALSE,222.796208575195,445.59241715039
771,75G ELGIN MEADOWS RD SE,75G ELGIN MEADOWS RD SE,MCKENZIE TOWNE,08/12/2014 12:00:00 AM,April 11 2014,BP2013-13251,301,12,-113.955768896118,50.9064673140365,"(50.9064673140365, -113.955768896118)",FALSE,227.853595833182,455.707191666364
811,83 BEACONSFIELD CR NW,83 BEACONSFIELD CR NW,BEDDINGTON HEIGHTS,12/10/2015 12:00:00 AM,November 06 2015,BP2015-13895,453,3,-114.099645673998,51.1267182233754,"(51.1267182233754, -114.099645673998)",FALSE,928.004112848231,1856.00822569646
674,58R KINLEA CO NW,58 KINLEA CO NW,KINCORA,03/19/2013 12:00:00 AM,March 18 2013,BP2012-09909,173,2,-114.132718839723,51.1659340588137,"(51.1659340588137, -114.132718839723)",TRUE,550.156035150622,1100.31207030124
392,25G MARY DOVER DR SW,25G MARY DOVER DR SW,CFB - CURRIE,07/29/2011 12:00:00 AM,July 22 2011,BP2010-13875,33,8,-114.130883984341,51.0190695654152,"(51.0190695654152, -114.130883984341)",FALSE,943.373054678973,1886.74610935795
478,3237 CEDARILLE DR SW,3237 CEDARILLE DR SW,CEDARBRAE,01/28/2016 12:00:00 AM,January 28 2016,BP2015-12396,470,11,-114.134844033814,50.9595248924765,"(50.9595248924765, -114.134844033814)",TRUE,88.3935698459823,176.787139691965
663,56 CEDARGROVE RD SW,56 CEDARGROVE RD SW,CEDARBRAE,10/09/2015 12:00:00 AM,October 09 2015,BP2011-09332,439,11,-114.125901005286,50.9530736628992,"(50.9530736628992, -114.125901005286)",FALSE,529.367734192218,1058.73546838444
422,2723 4 AV NW,2723 4 AV NW,WEST HILLHURST,11/03/2016 12:00:00 AM,June 03 2016,BP2015-16243,618,7,-114.124266513887,51.0557823205526,"(51.0557823205526, -114.124266513887)",FALSE,66.3163687553806,132.632737510761
202,165 HARVEST ROSE CI NE,165 HARVEST ROSE CI NE,HARVEST HILLS,04/26/2016 12:00:00 AM,April 04 2016,BP2013-17426,586,3,-114.059786036292,51.1419776862717,"(51.1419776862717, -114.059786036292)",FALSE,819.509573052357,1639.01914610471
594,46 EDGEBROOK PA NW,46 EDGEBROOK PA NW,EDGEMONT,01/26/2017 12:00:00 AM,January 26 2017,BP2016-09431,672,2,-114.125939586793,51.1387183536235,"(51.1387183536235, -114.125939586793)",FALSE,821.933930649243,1643.86786129849
371,2429 42 ST SE,2427 42 ST SE,FOREST LAWN,02/14/2017 12:00:00 AM,February 14 2017,BP2016-11095,693,9,-113.973223093977,51.0322106405274,"(51.0322106405274, -113.973223093977)",FALSE,766.587388553173,1533.17477710635
56,1143 READER CR NE,1143 READER CR NE,RENFREW,10/25/2013 12:00:00 AM,October 23 2013,BP2012-13936,216,9,-114.043348468012,51.0622228707786,"(51.0622228707786, -114.043348468012)",TRUE,787.953471393346,1575.90694278669
617,48 RIVERBEND GA SE,48 RIVERBEND GA SE,RIVERBEND,03/17/2017 12:00:00 AM,March 17 2017,BP2016-07709,713,9,-114.018183278802,50.9759132192835,"(50.9759132192835, -114.018183278802)",FALSE,1.23370248974508,2.46740497949016
554,417 EVANSGLEN DR NW,419 EVANSGLEN DR NW,EVANSTON,07/15/2016 12:00:00 AM,July 15 2016,BP2016-02943,553,2,-114.098292309793,51.178233430016,"(51.178233430016, -114.098292309793)",FALSE,471.452549022099,942.905098044198
717,656R MARIAN CR NE,656 MARIAN CR NE,MARLBOROUGH,06/19/2017 12:00:00 AM,June 19 2017,BP2016-09130,778,10,-113.96563114488,51.0584943354035,"(51.0584943354035, -113.96563114488)",FALSE,803.215141348606,1606.43028269721
454,305 27 AV NE,305 27 AV NE,TUXEDO PARK,09/22/2014 12:00:00 AM,August 29 2014,BP2013-16839,328,7,-114.056996474112,51.0767392010748,"(51.0767392010748, -114.056996474112)",FALSE,299.637565297785,599.27513059557
732,68 MILLCREST RD SW,68 MILLCREST RD SW,MILLRISE,08/30/2016 12:00:00 AM,August 30 2016,BP2016-05970,540,13,-114.089063069632,50.9154999532003,"(50.9154999532003, -114.089063069632)",FALSE,757.854624798206,1515.70924959641
587,449 EVANSTON WY NW,449 EVANSTON WY NW,EVANSTON,08/10/2017 12:00:00 AM,August 01 2017,BP2017-04487,819,2,-114.099283008221,51.1798048530341,"(51.1798048530341, -114.099283008221)",FALSE,273.735582042188,547.471164084375
585,446 33 AV NW,446 33 AV NW,HIGHLAND PARK,05/25/2015 12:00:00 AM,April 30 2015,BP2015-00104,395,4,-114.070603189337,51.0825796885004,"(51.0825796885004, -114.070603189337)",FALSE,698.324224974749,1396.6484499495
636,5116 17 AV NW,5116 17 AV NW,MONTGOMERY,03/13/2015 12:00:00 AM,March 13 2015,BP2014-14109,379,1,-114.166761027316,51.0762349078378,"(51.0762349078378, -114.166761027316)",TRUE,604.511513513598,1209.0230270272
747,714 40 AV NW,712 40 AV NW,HIGHWOOD,10/05/2011 12:00:00 AM,September 30 2011,BP2011-07668,70,7,-114.076332830344,51.088709974554,"(51.088709974554, -114.076332830344)",FALSE,219.117446284427,438.234892568853
833,9 EDGEFORD WY NW,9 EDGEFORD WY NW,EDGEMONT,03/30/2016 12:00:00 AM,March 30 2016,BP2015-14612,498,2,-114.158224494052,51.1203112150855,"(51.1203112150855, -114.158224494052)",FALSE,890.598690856668,1781.19738171334
283,2022 42 ST SE,2022 42 ST SE,FOREST LAWN,12/06/2013 12:00:00 AM,November 07 2013,BP2013-07035,282,9,-113.972553056927,51.0354393066723,"(51.0354393066723, -113.972553056927)",FALSE,386.829908213141,773.659816426282
813,83 COUGAR RIDGE CV SW,85 COUGAR RIDGE CV SW,COUGAR RIDGE,05/05/2014 12:00:00 AM,April 24 2014,BP2013-04259,259,1,-114.212297193788,51.0748541893237,"(51.0748541893237, -114.212297193788)",FALSE,944.775880506479,1889.55176101296
254,191 ELGIN RI SE,191 ELGIN RI SE,MCKENZIE TOWNE,01/31/2017 12:00:00 AM,January 31 2017,BP2016-10619,679,12,-113.962727638915,50.9056111848054,"(50.9056111848054, -113.962727638915)",FALSE,271.448205664052,542.896411328104
337,2241 25 ST SW,2241 25 ST SW,RICHMOND,11/06/2012 12:00:00 AM,November 06 2012,BP2012-02233,133,6,-114.121227828587,51.0334226586696,"(51.0334226586696, -114.121227828587)",FALSE,73.5188502419872,147.037700483974
1,#1Z 453 22 AV NW,453 22 AV NW,MOUNT PLEASANT,06/27/2014 12:00:00 AM,June 27 2014,BP2014-04297,345,7,-114.070511324681,51.0722272239183,"(51.0722272239183, -114.070511324681)",FALSE,574.666388800548,1149.3327776011
386,2526 19 ST SW,2526 19 ST SW,BANKVIEW,09/14/2011 12:00:00 AM,September 13 2011,BP2010-09519,436,8,-114.10536150166,51.032346377875,"(51.032346377875, -114.10536150166)",FALSE,471.60042332845,943.200846656901
824,86 AUTUMN CR SE,86 AUTUMN CR SE,AUBURN BAY,12/23/2015 12:00:00 AM,December 23 2015,BP2015-07090,473,12,-113.968947937405,50.8974871913377,"(50.8974871913377, -113.968947937405)",FALSE,941.320431443281,1882.64086288656
517,3638 39 ST NE,3638 39 ST NE,WHITEHORN,08/07/2012 12:00:00 AM,August 07 2012,BP2012-00366,115,5,-113.977219491441,51.0869631021671,"(51.0869631021671, -113.977219491441)",FALSE,406.208048439369,812.416096878737
219,175 HUNTERHORN DR NE,175 HUNTERHORN DR NE,HUNTINGTON HILLS,03/02/2015 12:00:00 AM,February 18 2015,BP2013-14596,306,3,-114.051733089341,51.1164174490043,"(51.1164174490043, -114.051733089341)",FALSE,505.850889371238,1011.70177874248
526,3736R DOUGLAS RIDGE WY SE,3736 DOUGLAS RIDGE WY SE,DOUGLASDALE/GLEN,06/07/2017 12:00:00 AM,June 07 2017,BP2017-01861,768,12,-113.980230696369,50.933534469276,"(50.933534469276, -113.980230696369)",FALSE,33.9928517534038,67.9857035068077
482,327 COVENTRY CL NE,327 COVENTRY CL NE,COVENTRY HILLS,03/12/2013 12:00:00 AM,March 12 2013,BP2013-00669,240,3,-114.046849026271,51.1562776325934,"(51.1562776325934, -114.046849026271)",FALSE,847.774579855977,1695.54915971195
679,595R TARALAKE WY NE,595 TARALAKE WY NE,TARADALE,04/08/2015 12:00:00 AM,March 11 2015,BP2013-07919,286,3,-113.926082436257,51.1235936835267,"(51.1235936835267, -113.926082436257)",FALSE,19.6602390829429,39.3204781658858
477,323 MCKENZIE TOWNE DR SE,321 MCKENZIE TOWNE DR SE,MCKENZIE TOWNE,02/14/2017 12:00:00 AM,January 30 2017,BP2016-12315,675,12,-113.962333156322,50.9066883236673,"(50.9066883236673, -113.962333156322)",FALSE,808.466230112878,1616.93246022576
809,828 40 AV NW,828 40 AV NW,HIGHWOOD,08/30/2016 12:00:00 AM,August 30 2016,BP2015-15650,591,7,-114.079156150211,51.0890153190525,"(51.0890153190525, -114.079156150211)",FALSE,606.156593591246,1212.31318718249
370,2428R 27 AV NW,2428 27 AV NW,BANFF TRAIL,07/13/2012 12:00:00 AM,July 11 2012,BP2011-02805,56,7,-114.117331762666,51.0771446894514,"(51.0771446894514, -114.117331762666)",FALSE,556.121539153255,1112.24307830651
187,159 BERMUDA WY NW,159 BERMUDA WY NW,BEDDINGTON HEIGHTS,02/04/2016 12:00:00 AM,January 29 2016,BP2014-00676,480,3,-114.075926223353,51.1317164209545,"(51.1317164209545, -114.075926223353)",FALSE,424.202597838341,848.405195676682
104,129 SADDLELAKE GR NE,129 SADDLELAKE GR NE,SADDLE RIDGE,04/02/2013 12:00:00 AM,January 30 2013,BP2012-13181,205,3,-113.930779757258,51.1284176762959,"(51.1284176762959, -113.930779757258)",FALSE,876.593095597978,1753.18619119596
555,41R SHERWOOD WY NW,41 SHERWOOD WY NW,SHERWOOD,11/14/2016 12:00:00 AM,November 14 2016,BP2016-12015,625,2,-114.143479367791,51.1584766724736,"(51.1584766724736, -114.143479367791)",FALSE,122.868485550652,245.736971101304
740,7 ROYAL BIRCH ST NW,7 ROYAL BIRCH ST NW,ROYAL OAK,09/13/2013 12:00:00 AM,September 12 2013,BP2013-05631,275,1,-114.219777071077,51.1442195298958,"(51.1442195298958, -114.219777071077)",TRUE,914.861419570091,1829.72283914018
461,310 CORNERSTONE PS NE,308 CORNERSTONE PS NE,CORNERSTONE,08/11/2017 12:00:00 AM,August 11 2017,BP2017-00628,806,3,-113.943511773505,51.1617840815149,"(51.1617840815149, -113.943511773505)",FALSE,853.082408315763,1706.16481663153
501,351 ABERGALE DR NE,351 ABERGALE DR NE,ABBEYDALE,07/31/2012 12:00:00 AM,July 30 2012,BP2012-00591,118,10,-113.929722121197,51.0577052631598,"(51.0577052631598, -113.929722121197)",FALSE,495.223157373437,990.446314746874
450,3020 13 AV SW,3020 13 AV SW,SHAGANAPPI,06/21/2013 12:00:00 AM,June 20 2013,BP2013-04945,269,6,-114.130838847773,51.0407772903094,"(51.0407772903094, -114.130838847773)",FALSE,742.407701175936,1484.81540235187
480,325G PANTON WY NW,325G PANTON WY NW,PANORAMA HILLS,12/16/2016 12:00:00 AM,December 16 2016,BP2016-06915,644,3,-114.087400476046,51.1727339527361,"(51.1727339527361, -114.087400476046)",FALSE,707.849030832772,1415.69806166554
662,55G ELGIN MEADOWS RD SE,55G ELGIN MEADOWS RD SE,MCKENZIE TOWNE,09/25/2012 12:00:00 AM,September 24 2012,BP2012-02129,443,12,-113.955699668936,50.9069446719673,"(50.9069446719673, -113.955699668936)",FALSE,762.120905546828,1524.24181109366
431,28 MARTINDALE CR NE,28 MARTINDALE CR NE,MARTINDALE,12/21/2015 12:00:00 AM,December 01 2015,BP2014-18656,789,3,-113.95808867656,51.1114831009646,"(51.1114831009646, -113.95808867656)",FALSE,665.184649749722,1330.36929949944
241,184 TARADALE DR NE,184 TARADALE DR NE,TARADALE,07/07/2015 12:00:00 AM,July 07 2015,BP2014-16203,422,3,-113.937711082939,51.1142688796814,"(51.1142688796814, -113.937711082939)",FALSE,806.56723110882,1613.13446221764
700,62 MONTROSE CR NE,62 MONTROSE CR NE,WINSTON HEIGHTS/MOUNTVIEW,08/16/2017 12:00:00 AM,August 16 2017,BP2016-14345,811,7,-114.044030571256,51.070136249126,"(51.070136249126, -114.044030571256)",FALSE,203.73708026719,407.47416053438
551,4132R MARYVALE RD NE,4132 MARYVALE RD NE,MARLBOROUGH,11/15/2016 12:00:00 AM,November 15 2016,BP2016-12602,626,10,-113.973414413236,51.0571864916448,"(51.0571864916448, -113.973414413236)",FALSE,379.965289830509,759.930579661017
148,1465 RUSSELL RD NE,1465 RUSSELL RD NE,RENFREW,03/22/2013 12:00:00 AM,March 21 2013,BP2012-16090,223,9,-114.033009733269,51.0659437505866,"(51.0659437505866, -114.033009733269)",FALSE,835.111105886828,1670.22221177366
447,30 MARTHA'S MEADOW GA NE,28 MARTHA'S MEADOW GA NE,MARTINDALE,07/10/2017 12:00:00 AM,July 10 2017,BP2017-00831,788,3,-113.96014162317,51.1245297892754,"(51.1245297892754, -113.96014162317)",FALSE,17.2791750465371,34.5583500930742
325,220 COVINGTON RD NE,220 COVINGTON RD NE,COVENTRY HILLS,09/19/2014 12:00:00 AM,August 28 2014,BP2013-06020,264,3,-114.041464442567,51.159189864006,"(51.159189864006, -114.041464442567)",FALSE,434.728515723558,869.457031447116
843,924 42 ST SW,924 42 ST SW,ROSSCARROCK,08/03/2012 12:00:00 AM,August 01 2012,BP2011-00820,47,6,-114.148027448901,51.0442033347269,"(51.0442033347269, -114.148027448901)",FALSE,453.469933763649,906.939867527299
350,231 PRESTWICK LD SE,231 PRESTWICK LD SE,MCKENZIE TOWNE,03/16/2015 12:00:00 AM,February 20 2015,BP2014-00888,339,12,-113.971303715244,50.9194646475578,"(50.9194646475578, -113.971303715244)",FALSE,997.485052784226,1994.97010556845
744,712 24A ST NW,712 24A ST NW,WEST HILLHURST,12/03/2016 12:00:00 AM,December 02 2016,BP2015-15728,612,7,-114.118935433393,51.0581487103655,"(51.0581487103655, -114.118935433393)",FALSE,599.385004184866,1198.77000836973
777,7627 OGDEN RD SE,7627 OGDEN RD SE,OGDEN,10/13/2017 12:00:00 AM,October 13 2017,BP2017-09638,849,9,-113.999144241915,50.9839064133385,"(50.9839064133385, -113.999144241915)",FALSE,286.66915813626,573.33831627252
577,437 HENDON DR NW,439 HENDON DR NW,HIGHWOOD,12/09/2016 12:00:00 AM,December 09 2016,BP2016-08391,638,7,-114.082465316218,51.0960446458626,"(51.0960446458626, -114.082465316218)",FALSE,582.738568956082,1165.47713791216
784,7883R MARTHA'S HAVEN PA NE,7883 MARTHA'S HAVEN PA NE,MARTINDALE,09/21/2012 12:00:00 AM,September 21 2012,BP2012-02426,135,3,-113.968877107571,51.1245594719636,"(51.1245594719636, -113.968877107571)",FALSE,355.787454228321,711.574908456641
419,2719R 40 ST SW,2719 40 ST SW,GLENDALE,03/01/2017 12:00:00 AM,March 01 2017,BP2017-00526,705,6,-114.145661002061,51.0297029626138,"(51.0297029626138, -114.145661002061)",FALSE,469.082046066945,938.16409213389
671,57 GALWAY CR SW,57 GALWAY CR SW,GLAMORGAN,02/14/2017 12:00:00 AM,February 14 2017,BP2016-09814,695,6,-114.148644779696,51.0138274793625,"(51.0138274793625, -114.148644779696)",FALSE,732.511980879174,1465.02396175835
633,51 SADDLELAKE PL NE,51 SADDLELAKE PL NE,SADDLE RIDGE,02/24/2014 12:00:00 AM,February 24 2014,BP2013-03597,252,3,-113.930448066747,51.1270598062737,"(51.1270598062737, -113.930448066747)",FALSE,790.358050562739,1580.71610112548
761,7423 25 ST SE,7423 25 ST SE,OGDEN,05/26/2017 12:00:00 AM,May 26 2017,BP2016-08207,763,9,-114.000550719987,50.9860360688774,"(50.9860360688774, -114.000550719987)",FALSE,519.784558743607,1039.56911748721
613,47R COPPERSTONE ME SE,47 COPPERSTONE ME SE,COPPERFIELD,12/20/2016 12:00:00 AM,December 20 2016,BP2016-10359,649,12,-113.925651631825,50.9168989876213,"(50.9168989876213, -113.925651631825)",FALSE,677.577656100266,1355.15531220053
729,6790 MALVERN RD NE,639 MALVERN WY NE,MARLBOROUGH PARK,08/05/2016 12:00:00 AM,August 05 2016,BP2016-05785,565,10,-113.938133996241,51.0571563773756,"(51.0571563773756, -113.938133996241)",FALSE,791.18417328462,1582.36834656924
274,20 WOODFIELD GR SW,20 WOODFIELD GR SW,WOODBINE,07/22/2014 12:00:00 AM,June 25 2014,BP2013-08838,289,13,-114.122533378122,50.9380834013093,"(50.9380834013093, -114.122533378122)",FALSE,219.355404176394,438.710808352788
354,236 KINCORA DR NW,236 KINCORA DR NW,KINCORA,04/09/2015 12:00:00 AM,March 18 2015,BP2014-13617,375,2,-114.130849868543,51.1544584024876,"(51.1544584024876, -114.130849868543)",FALSE,435.983068260911,871.966136521822
147,146 SKYVIEW SHORES CR NE,146 SKYVIEW SHORES CR NE,SKYVIEW RANCH,05/17/2013 12:00:00 AM,May 17 2013,BP2012-07140,159,3,-113.968263430923,51.1592801422532,"(51.1592801422532, -113.968263430923)",FALSE,649.481888078455,1298.96377615691
247,189 EVANSDALE LD NW,189 EVANSDALE LD NW,EVANSTON,12/09/2015 12:00:00 AM,December 08 2015,BP2015-01880,452,3,-114.101052103371,51.1755024414162,"(51.1755024414162, -114.101052103371)",FALSE,43.8882933321897,87.7765866643794
109,131 SADDLECREEK CO NE,131 SADDLECREEK CO NE,SADDLE RIDGE,06/15/2016 12:00:00 AM,May 24 2016,BP2015-14003,528,3,-113.957876689918,51.1257267619673,"(51.1257267619673, -113.957876689918)",FALSE,104.409312006974,208.818624013949
628,5031 4 ST NW,5031 4 ST NW,THORNCLIFFE,05/02/2016 12:00:00 AM,June 29 2015,BP2015-04013,684,4,-114.071887736912,51.097441859639,"(51.097441859639, -114.071887736912)",FALSE,510.285008877425,1020.57001775485
779,76G DIEPPE DR SW,76G DIEPPE DR SW,CFB - CURRIE,12/05/2014 12:00:00 AM,July 30 2014,BP2013-17616,316,8,-114.129854011794,51.0173409012382,"(51.0173409012382, -114.129854011794)",FALSE,985.470507949834,1970.94101589967
312,2128G 58 AV SW,2128G 58 AV SW,NORTH GLENMORE PARK,03/09/2015 12:00:00 AM,February 20 2015,BP2014-06693,372,11,-114.111069578174,51.0017707903217,"(51.0017707903217, -114.111069578174)",FALSE,789.868713930841,1579.73742786168
597,4619R 3 ST NE,4619 3 ST NE,GREENVIEW,05/18/2017 12:00:00 AM,May 18 2017,BP2017-01009,755,4,-114.055549556755,51.0943587533451,"(51.0943587533451, -114.055549556755)",FALSE,410.847213899852,821.694427799704
206,16G DIEPPE DR SW,16G DIEPPE DR SW,CFB - CURRIE,08/21/2015 12:00:00 AM,August 21 2015,BP2014-18988,397,8,-114.130321819353,51.0164229553287,"(51.0164229553287, -114.130321819353)",FALSE,629.873659006177,1259.74731801235
722,66 WALDEN CO SE,66 WALDEN CO SE,WALDEN,05/01/2014 12:00:00 AM,May 01 2014,BP2014-01325,333,14,-114.030450678653,50.8734514520605,"(50.8734514520605, -114.030450678653)",FALSE,848.749006707184,1697.49801341437
473,31G PRESTWICK ST SE,31G PRESTWICK ST SE,MCKENZIE TOWNE,03/31/2016 12:00:00 AM,January 27 2016,BP2015-15519,501,12,-113.967424639623,50.9242908771196,"(50.9242908771196, -113.967424639623)",FALSE,173.674794460391,347.349588920783
361,24 SKYVIEW POINT CR NE,24 SKYVIEW POINT CR NE,SKYVIEW RANCH,08/22/2016 12:00:00 AM,August 22 2016,BP2015-15433,571,3,-113.953406425026,51.1637144971938,"(51.1637144971938, -113.953406425026)",FALSE,785.95915776732,1571.91831553464
182,156 SKYVIEW POINT RD NE,156 SKYVIEW POINT RD NE,SKYVIEW RANCH,12/05/2014 12:00:00 AM,October 02 2014,BP2014-08630,371,3,-113.949940122613,51.1601058814357,"(51.1601058814357, -113.949940122613)",FALSE,41.3616406181572,82.7232812363143
367,2416 37 ST SW,2416 37 ST SW,KILLARNEY/GLENGARRY,02/24/2012 12:00:00 AM,February 22 2012,BP2011-13246,94,6,-114.14085784578,51.0325804944389,"(51.0325804944389, -114.14085784578)",FALSE,204.849285277356,409.698570554712
84,122 13 ST NE,122 13 ST NE,RENFREW,05/24/2017 12:00:00 AM,May 24 2017,BP2016-00090,760,9,-114.030171806882,51.0530289734956,"(51.0530289734956, -114.030171806882)",FALSE,865.95167652198,1731.90335304396
818,840 69 AV SW,840 69 AV SW,KINGSLAND,03/29/2013 12:00:00 AM,March 27 2013,BP2012-14549,211,11,-114.081107150826,50.9916552768011,"(50.9916552768011, -114.081107150826)",TRUE,717.16004437223,1434.32008874446
348,2308 PALISWOOD RD SW,2308 PALISWOOD RD SW,PALLISER,06/21/2017 12:00:00 AM,June 21 2017,BP2015-14773,779,11,-114.112848608779,50.9718678627345,"(50.9718678627345, -114.112848608779)",FALSE,292.23238731372,584.46477462744
746,712R RANCHVIEW CI NW,712 RANCHVIEW CI NW,RANCHLANDS,05/03/2013 12:00:00 AM,May 02 2013,BP2012-15650,222,2,-114.185185936072,51.1162029679968,"(51.1162029679968, -114.185185936072)",FALSE,434.290047264748,868.580094529496
83,1218R SANDPIPER RD NW,1218 SANDPIPER RD NW,SANDSTONE VALLEY,05/26/2014 12:00:00 AM,May 15 2014,BP2013-03540,273,3,-114.09609715142,51.138792670012,"(51.138792670012, -114.09609715142)",TRUE,129.790277124661,259.580554249323
680,59G HONG KONG RD SW,59G HONG KONG RD SW,CFB - CURRIE,12/06/2013 12:00:00 AM,December 04 2013,BP2012-15735,219,8,-114.132653955604,51.0168490088653,"(51.0168490088653, -114.132653955604)",FALSE,41.531050860717,83.0621017214339
792,807 21 AV NW,807 21 AV NW,MOUNT PLEASANT,12/14/2012 12:00:00 AM,December 13 2012,BP2011-12922,441,7,-114.079391260022,51.071236404133,"(51.071236404133, -114.079391260022)",FALSE,692.606445103762,1385.21289020752
499,3507 7 AV SW,3507 7 AV SW,SPRUCE CLIFF,09/10/2013 12:00:00 AM,June 11 2013,BP2013-03755,268,6,-114.13756772151,51.0457832770569,"(51.0457832770569, -114.13756772151)",FALSE,87.6322073488612,175.264414697722
146,146 COUGAR RIDGE MR SW,144 COUGAR RIDGE MR SW,COUGAR RIDGE,10/02/2017 12:00:00 AM,October 02 2017,BP2017-01154,843,1,-114.219897513595,51.0750704204532,"(51.0750704204532, -114.219897513595)",FALSE,354.667698632685,709.33539726537
705,625G 24 AV NW,625G 24 AV NW,MOUNT PLEASANT,08/17/2015 12:00:00 AM,August 17 2015,BP2013-16932,315,7,-114.075463196586,51.0737553733144,"(51.0737553733144, -114.075463196586)",FALSE,201.271840730086,402.543681460172
186,158R COVEMEADOW CR NE,158 COVEMEADOW CR NE,COVENTRY HILLS,08/15/2017 12:00:00 AM,August 15 2017,BP2017-00172,808,3,-114.066197669578,51.1692286642214,"(51.1692286642214, -114.066197669578)",FALSE,4.36363337279178,8.72726674558355
842,921G 24 AV NW,921G 24 AV NW,MOUNT PLEASANT,11/10/2011 12:00:00 AM,November 09 2011,BP2011-14033,98,7,-114.082893986258,51.0737598875661,"(51.0737598875661, -114.082893986258)",FALSE,802.46061196026,1604.92122392052
841,9187R SADDLEBROOK DR NE,9187 SADDLEBROOK DR NE,SADDLE RIDGE,12/13/2016 12:00:00 AM,December 13 2016,BP2016-02874,640,3,-113.931118007881,51.1336285004403,"(51.1336285004403, -113.931118007881)",FALSE,390.009025203568,780.018050407136
660,55 SADDLELAKE PL NE,55 SADDLELAKE PL NE,SADDLE RIDGE,03/29/2013 12:00:00 AM,March 28 2013,BP2012-11129,182,3,-113.930433929663,51.1271413875393,"(51.1271413875393, -113.930433929663)",FALSE,889.594620300257,1779.18924060051
507,35G DIEPPE DR SW,35G DIEPPE DR SW,CFB - CURRIE,04/16/2014 12:00:00 AM,April 15 2014,BP2013-06187,278,8,-114.131022166957,51.0171586779649,"(51.0171586779649, -114.131022166957)",FALSE,314.652529354955,629.30505870991
302,20G DIEPPE DR SW,20G DIEPPE DR SW,CFB - CURRIE,01/05/2015 12:00:00 AM,December 04 2014,BP2014-03892,343,8,-114.130267250613,51.0165304800229,"(51.0165304800229, -114.130267250613)",FALSE,651.823298078768,1303.64659615754
703,623 ARLINGTON DR SE,623 ARLINGTON DR SE,ACADIA,11/08/2016 12:00:00 AM,December 21 2015,BP2015-08808,667,9,-114.05132528242,50.9756959637031,"(50.9756959637031, -114.05132528242)",FALSE,260.402075218821,520.804150437642
767,75 GLENWAY DR SW,75 GLENWAY DR SW,GLAMORGAN,12/16/2015 12:00:00 AM,October 26 2015,BP2015-12262,457,6,-114.145460080175,51.0178109408054,"(51.0178109408054, -114.145460080175)",FALSE,981.591269395246,1963.18253879049
385,2520 16A ST SW,2520 16A ST SW,BANKVIEW,05/26/2014 12:00:00 AM,May 23 2014,BP2013-13886,311,8,-114.099705548429,51.0317228123421,"(51.0317228123421, -114.099705548429)",FALSE,300.81819183644,601.63638367288
347,2306 6 AV NW,2306 6 AV NW,WEST HILLHURST,06/04/2013 12:00:00 AM,June 04 2013,BP2012-07808,164,7,-114.113388482203,51.0583640696549,"(51.0583640696549, -114.113388482203)",FALSE,443.659385612553,887.318771225106
545,408 30 AV NW,408 30 AV NW,MOUNT PLEASANT,07/05/2017 12:00:00 AM,July 05 2017,BP2014-15913,820,7,-114.06793540342,51.0798508791946,"(51.0798508791946, -114.06793540342)",FALSE,94.4962657019521,188.992531403904
602,465B 30 AV NW,465 30 AV NW,MOUNT PLEASANT,06/29/2017 12:00:00 AM,June 29 2017,BP2017-01755,783,7,-114.071038449074,51.0794475287682,"(51.0794475287682, -114.071038449074)",FALSE,894.60500118384,1789.21000236768
712,64 LISSINGTON DR SW,64 LISSINGTON DR SW,NORTH GLENMORE PARK,12/22/2016 12:00:00 AM,December 22 2016,BP2016-11653,651,11,-114.112818923685,51.003380347492,"(51.003380347492, -114.112818923685)",FALSE,343.779877987962,687.559755975923
812,83 COPPERSTONE GA SE,83 COPPERSTONE GA SE,COPPERFIELD,07/17/2015 12:00:00 AM,June 02 2015,BP2015-00045,400,12,-113.937640379432,50.913480561914,"(50.913480561914, -113.937640379432)",FALSE,740.747164478052,1481.4943289561
772,75R EVERWOODS GR SW,75 EVERWOODS GR SW,EVERGREEN,12/05/2014 12:00:00 AM,November 24 2014,BP2013-18392,318,13,-114.126498895988,50.9182604587623,"(50.9182604587623, -114.126498895988)",FALSE,349.616703740178,699.233407480357
802,819 13 AV NE,819 13 AV NE,RENFREW,12/30/2015 12:00:00 AM,December 30 2015,BP2015-03352,551,9,-114.044833303454,51.0639525682767,"(51.0639525682767, -114.044833303454)",FALSE,772.637533016795,1545.27506603359
530,38 WALDEN CO SE,38 WALDEN CO SE,WALDEN,05/14/2013 12:00:00 AM,May 13 2013,BP2012-17007,229,14,-114.031408523738,50.8737790365257,"(50.8737790365257, -114.031408523738)",FALSE,196.889497677391,393.778995354782
715,643R 75 AV NW,643 75 AV NW,HUNTINGTON HILLS,08/03/2017 12:00:00 AM,August 03 2017,BP2016-14598,799,3,-114.075397694238,51.1198998495132,"(51.1198998495132, -114.075397694238)",FALSE,620.703285574883,1241.40657114977
270,20 BRIDLERIDGE LN SW,20 BRIDLERIDGE LN SW,BRIDLEWOOD,05/10/2016 12:00:00 AM,April 26 2016,BP2015-01738,516,13,-114.114138453393,50.9003132331833,"(50.9003132331833, -114.114138453393)",FALSE,664.124876971318,1328.24975394264
764,7430 22A ST SE,7430 22A ST SE,OGDEN,10/19/2016 12:00:00 AM,October 19 2016,BP2015-03057,609,9,-114.004180849809,50.985191715997,"(50.985191715997, -114.004180849809)",FALSE,139.323290264927,278.646580529853
472,319G MARQUIS CO SE,319G MARQUIS CO SE,MAHOGANY,03/07/2017 12:00:00 AM,March 07 2017,BP2016-10215,707,12,-113.909640307434,50.901391115273,"(50.901391115273, -113.909640307434)",FALSE,167.302343099402,334.604686198804
403,2623 33 ST SW,2623 33 ST SW,KILLARNEY/GLENGARRY,04/27/2017 12:00:00 AM,April 27 2017,BP2016-03674,739,6,-114.13577837192,51.030757431949,"(51.030757431949, -114.13577837192)",FALSE,445.564668929745,891.12933785949
608,473 30 AV NW,473 30 AV NW,MOUNT PLEASANT,05/03/2017 12:00:00 AM,May 03 2017,BP2016-03889,746,7,-114.071271158719,51.0794208675761,"(51.0794208675761, -114.071271158719)",FALSE,919.557318922609,1839.11463784522
789,8 MARTINVIEW RD NE,8 MARTINVIEW RD NE,MARTINDALE,08/22/2016 12:00:00 AM,August 22 2016,BP2016-00456,572,3,-113.96082063614,51.1130177688127,"(51.1130177688127, -113.96082063614)",FALSE,914.001602643687,1828.00320528737
445,3 SKYVIEW RANCH BV NE,558 SKYVIEW RANCH DR NE,SKYVIEW RANCH,11/30/2016 12:00:00 AM,November 30 2016,BP2015-01965,656,3,-113.952126960864,51.157927098913,"(51.157927098913, -113.952126960864)",FALSE,16.8913223599315,33.782644719863
711,64 ABERDARE WY NE,64 ABERDARE WY NE,ABBEYDALE,06/11/2013 12:00:00 AM,June 10 2013,BP2012-12436,217,10,-113.923770737549,51.0587224593655,"(51.0587224593655, -113.923770737549)",FALSE,160.483971148245,320.96794229649
455,305 GLAMORGAN CR SW,307 GLAMORGAN CR SW,GLAMORGAN,11/01/2017 12:00:00 AM,October 30 2017,BP2017-11924,862,6,-114.158204187288,51.0118469012637,"(51.0118469012637, -114.158204187288)",TRUE,344.573196579835,689.14639315967
820,84G QUARRY DR SE,84G QUARRY DR SE,DOUGLASDALE/GLEN,07/09/2013 12:00:00 AM,July 08 2013,BP2012-17170,232,12,-114.015131469731,50.9589377289856,"(50.9589377289856, -114.015131469731)",FALSE,935.41843738035,1870.8368747607
611,47G BENY-SUR-MER RD SW,47G BENY-SUR-MER RD SW,CFB - CURRIE,01/24/2014 12:00:00 AM,January 24 2014,BP2013-00987,243,8,-114.132263758218,51.0193825641789,"(51.0193825641789, -114.132263758218)",FALSE,39.7357803669137,79.4715607338274
539,40 ERIN RIDGE RD SE,40 ERIN RIDGE RD SE,ERIN WOODS,03/31/2014 12:00:00 AM,March 11 2014,BP2013-15568,307,9,-113.975712252317,51.0172710234011,"(51.0172710234011, -113.975712252317)",FALSE,891.070188195743,1782.14037639149
243,186R SHERWOOD MT NW,186 SHERWOOD MT NW,SHERWOOD,09/28/2012 12:00:00 AM,September 26 2012,BP2012-00667,42,2,-114.157682001866,51.1611173771952,"(51.1611173771952, -114.157682001866)",FALSE,742.742188522927,1485.48437704585
534,3911B CENTRE A ST NE,3911 CENTRE A ST NE,HIGHLAND PARK,03/16/2012 12:00:00 AM,March 14 2012,BP2011-00093,40,4,-114.061353775379,51.0875941781193,"(51.0875941781193, -114.061353775379)",FALSE,387.588636159957,775.177272319915
106,1303 5 ST NE,1305 5 ST NE,RENFREW,02/09/2017 12:00:00 AM,February 09 2017,BP2016-07777,690,9,-114.051052617742,51.0639570564733,"(51.0639570564733, -114.051052617742)",FALSE,23.216500743531,46.433001487062
429,27G HONG KONG RD SW,27G HONG KONG RD SW,CFB - CURRIE,09/07/2012 12:00:00 AM,September 06 2012,BP2012-00766,120,8,-114.132242027271,51.0173950116167,"(51.0173950116167, -114.132242027271)",FALSE,858.905585823428,1717.81117164686
837,904 19 AV SE,904 19 AV SE,RAMSAY,05/04/2015 12:00:00 AM,April 09 2015,BP2014-14872,389,9,-114.04053521155,51.0363238578746,"(51.0363238578746, -114.04053521155)",FALSE,176.204204503437,352.408409006875
800,815 78 AV NW,815 78 AV NW,HUNTINGTON HILLS,01/15/2016 12:00:00 AM,January 15 2016,BP2015-12974,466,3,-114.079241992871,51.1218348939459,"(51.1218348939459, -114.079241992871)",FALSE,772.350237459067,1544.70047491813
731,67G ELGIN MEADOWS RD SE,67G ELGIN MEADOWS RD SE,MCKENZIE TOWNE,12/09/2012 12:00:00 AM,December 06 2012,BP2012-03869,151,12,-113.955773205784,50.9066307888734,"(50.9066307888734, -113.955773205784)",FALSE,49.7475623335131,99.4951246670261
256,192 RIVERVALLEY CR SE,192 RIVERVALLEY CR SE,RIVERBEND,03/15/2017 12:00:00 AM,March 15 2017,BP2016-13358,711,9,-114.01933523338,50.9736262254122,"(50.9736262254122, -114.01933523338)",FALSE,884.769974867201,1769.5399497344
701,62 SADDLELAKE DR NE,62 SADDLELAKE DR NE,SADDLE RIDGE,05/25/2015 12:00:00 AM,April 30 2015,BP2014-10054,531,3,-113.932929303147,51.1263250696113,"(51.1263250696113, -113.932929303147)",FALSE,687.231636797236,1374.46327359447
285,2028 33 ST SW,2028 33 ST SW,KILLARNEY/GLENGARRY,04/01/2015 12:00:00 AM,March 10 2015,BP2013-15309,308,6,-114.135148223892,51.0352267365455,"(51.0352267365455, -114.135148223892)",FALSE,323.141709642423,646.283419284846
329,2212G 26 AV SW,2212G 26 AV SW,RICHMOND,10/04/2013 12:00:00 AM,October 04 2013,BP2013-05717,265,8,-114.11255368308,51.0309023721996,"(51.0309023721996, -114.11255368308)",FALSE,346.177083598977,692.354167197953
559,421 16 ST NW,421 16 ST NW,HILLHURST,05/15/2014 12:00:00 AM,May 15 2014,BP2013-01587,244,7,-114.098170654646,51.0560886005883,"(51.0560886005883, -114.098170654646)",FALSE,999.103859011678,1998.20771802336
50,113 EVANSBROOKE PA NW,113 EVANSBROOKE PA NW,EVANSTON,03/10/2016 12:00:00 AM,March 10 2016,BP2016-00085,493,3,-114.120384966412,51.1632390467928,"(51.1632390467928, -114.120384966412)",FALSE,889.725925175818,1779.45185035164
315,2140G 6 AV NW,2140G 6 AV NW,WEST HILLHURST,03/31/2014 12:00:00 AM,March 31 2014,BP2013-14086,310,7,-114.110175863272,51.0585881000684,"(51.0585881000684, -114.110175863272)",FALSE,4.53374348680557,9.06748697361115
855,9786 HIDDEN VALLEY DR NW,9786 HIDDEN VALLEY DR NW,HIDDEN VALLEY,03/01/2013 12:00:00 AM,March 01 2013,BP2012-12096,195,3,-114.12046643833,51.1462951031886,"(51.1462951031886, -114.12046643833)",FALSE,637.887267710021,1275.77453542004
230,18 MAHOGANY PS SE,18 MAHOGANY PS SE,MAHOGANY,02/17/2016 12:00:00 AM,January 08 2016,BP2015-15944,462,12,-113.938107466089,50.889866471747,"(50.889866471747, -113.938107466089)",FALSE,929.24164361025,1858.4832872205
563,4242 GLOUCESTER DR SW,4240 GLOUCESTER DR SW,GLAMORGAN,05/17/2017 12:00:00 AM,May 17 2017,BP2016-14025,753,6,-114.143619443875,51.0162841814982,"(51.0162841814982, -114.143619443875)",FALSE,512.67929719292,1025.35859438584
797,81 CRANFORD PL SE,81 CRANFORD PL SE,CRANSTON,01/03/2014 12:00:00 AM,January 02 2014,BP2012-14194,210,12,-113.966570313696,50.8770818310236,"(50.8770818310236, -113.966570313696)",FALSE,492.046660475187,984.093320950373
166,1512 47 ST SE,1510 47 ST SE,FOREST LAWN,05/19/2017 12:00:00 AM,May 19 2017,BP2017-00884,757,9,-113.965423820735,51.0405251155093,"(51.0405251155093, -113.965423820735)",FALSE,714.625699670184,1429.25139934037
142,1433 CHILD AV NE,1433 CHILD AV NE,RENFREW,09/29/2016 12:00:00 AM,September 27 2016,BP2015-14176,597,9,-114.029651323027,51.0541581705201,"(51.0541581705201, -114.029651323027)",FALSE,482.946097877398,965.892195754796
696,616 34 AV NE,616 34 AV NE,WINSTON HEIGHTS/MOUNTVIEW,12/23/2016 12:00:00 AM,December 23 2016,BP2016-00572,652,9,-114.049895020427,51.083413463699,"(51.083413463699, -114.049895020427)",FALSE,227.633160156039,455.266320312079
716,6440G 34 AV NW,6440G 34 AV NW,BOWNESS,05/01/2012 12:00:00 AM,May 01 2012,BP2011-08365,61,1,-114.183000123668,51.0837300944361,"(51.0837300944361, -114.183000123668)",FALSE,776.784675743517,1553.56935148703
710,63G ELGIN MEADOWS RD SE,63G ELGIN MEADOWS RD SE,MCKENZIE TOWNE,10/30/2012 12:00:00 AM,October 30 2012,BP2012-03311,149,12,-113.955748768825,50.9067460666977,"(50.9067460666977, -113.955748768825)",FALSE,165.098673355421,330.197346710843
544,408 21 AV NE,408 21 AV NE,WINSTON HEIGHTS/MOUNTVIEW,08/25/2016 12:00:00 AM,August 25 2016,BP2016-06930,576,7,-114.055667748765,51.0717300858062,"(51.0717300858062, -114.055667748765)",FALSE,97.775236692443,195.550473384886
580,43R COVEHAVEN RI NE,43 COVEHAVEN RI NE,COVENTRY HILLS,09/05/2017 12:00:00 AM,September 05 2017,BP2017-08351,825,3,-114.062481699582,51.1626315804237,"(51.1626315804237, -114.062481699582)",FALSE,342.16428215103,684.328564302059
456,306 SKYVIEW SPRINGS GD NE,306 SKYVIEW SPRINGS GD NE,SKYVIEW RANCH,11/23/2012 12:00:00 AM,November 22 2012,BP2012-02668,145,3,-113.967615355247,51.1615657206746,"(51.1615657206746, -113.967615355247)",FALSE,289.418347694748,578.836695389496
20,104R MILLSIDE DR SW,104 MILLSIDE DR SW,MILLRISE,08/04/2017 12:00:00 AM,August 04 2017,BP2016-11475,810,13,-114.076899698679,50.9182730285078,"(50.9182730285078, -114.076899698679)",FALSE,487.358090028782,974.716180057564
471,318 COSTA MESA CL NE,318 COSTA MESA CL NE,MONTEREY PARK,06/13/2014 12:00:00 AM,June 05 2014,BP2014-02586,361,5,-113.932532976846,51.0856061879109,"(51.0856061879109, -113.932532976846)",FALSE,75.8130154966122,151.626030993224
262,1936G 27 ST SW,1936G 27 ST SW,KILLARNEY/GLENGARRY,03/05/2014 12:00:00 AM,March 05 2014,BP2012-16968,231,6,-114.126041879312,51.0364994149604,"(51.0364994149604, -114.126041879312)",FALSE,191.430201236465,382.86040247293
253,1904 62 AV SE,1904 62 AV SE,OGDEN,08/21/2014 12:00:00 AM,July 25 2014,BP2013-18171,320,9,-114.016083457381,50.9979169360692,"(50.9979169360692, -114.016083457381)",FALSE,688.046356304863,1376.09271260973
51,113 SADDLELAKE GR NE,113 SADDLELAKE GR NE,SADDLE RIDGE,04/02/2013 12:00:00 AM,January 31 2013,BP2012-13182,206,3,-113.931322323754,51.1284189130998,"(51.1284189130998, -113.931322323754)",FALSE,32.012966978765,64.02593395753
721,66 CRANWELL SQ SE,66 CRANWELL SQ SE,CRANSTON,11/13/2012 12:00:00 AM,November 12 2012,BP2011-15228,110,12,-113.983679355837,50.8841552297239,"(50.8841552297239, -113.983679355837)",FALSE,273.295190787114,546.590381574229
742,70R WALDEN CO SE,70 WALDEN CO SE,WALDEN,08/20/2013 12:00:00 AM,August 19 2013,BP2013-04605,261,14,-114.030374096987,50.8733437628409,"(50.8733437628409, -114.030374096987)",FALSE,309.804694702145,619.609389404291
778,76G BENY-SUR-MER RD SW,76G BENY-SUR-MER RD SW,CFB - CURRIE,04/29/2011 12:00:00 AM,April 28 2011,BP2010-11606,34,8,-114.132385334787,51.018886954916,"(51.018886954916, -114.132385334787)",FALSE,704.468038993085,1408.93607798617
138,1411 18 ST NE,1411 18 ST NE,MAYLAND HEIGHTS,12/05/2011 12:00:00 AM,December 02 2011,BP2011-08463,77,3,-114.016601791146,51.064310738085,"(51.064310738085, -114.016601791146)",FALSE,485.296971183659,970.593942367319
242,185R PANTON WY NW,185 PANTON WY NW,PANORAMA HILLS,01/21/2014 12:00:00 AM,January 21 2014,BP2013-12731,297,3,-114.089429589329,51.1700079685194,"(51.1700079685194, -114.089429589329)",FALSE,264.661180896564,529.322361793128
796,81 AUBURN BAY GD SE,81 AUBURN BAY GD SE,AUBURN BAY,07/29/2016 12:00:00 AM,July 29 2016,BP2014-10951,606,12,-113.969886966831,50.8900315902382,"(50.8900315902382, -113.969886966831)",FALSE,714.635157290362,1429.27031458072
300,209 CITYSCAPE GD NE,209 CITYSCAPE GD NE,CITYSCAPE,08/17/2016 12:00:00 AM,August 17 2016,BP2016-00996,569,3,-113.967116719462,51.1529158365118,"(51.1529158365118, -113.967116719462)",FALSE,693.397684519985,1386.79536903997
363,2408 RIVERSTONE RD SE,2410 RIVERSTONE RD SE,RIVERBEND,08/23/2017 12:00:00 AM,August 23 2017,BP2017-00523,815,9,-114.00427260888,50.9769182088662,"(50.9769182088662, -114.00427260888)",FALSE,849.023143309719,1698.04628661944
743,71 SHAWMEADOWS CL SW,71 SHAWMEADOWS CL SW,SHAWNESSY,12/15/2015 12:00:00 AM,November 27 2015,BP2015-08017,455,13,-114.073280271776,50.9119617425841,"(50.9119617425841, -114.073280271776)",FALSE,250.56374894802,501.127497896041
525,3736G 3 AV SW,3736G 3 AV SW,SPRUCE CLIFF,05/05/2015 12:00:00 AM,April 28 2015,BP2014-14182,391,6,-114.140894033694,51.0506865044104,"(51.0506865044104, -114.140894033694)",FALSE,884.15245950398,1768.30491900796
224,177 SAGE BLUFF CL NW,177 SAGE BLUFF CL NW,SAGE HILL,02/22/2017 12:00:00 AM,February 16 2017,BP2017-00382,698,2,-114.13887063287,51.1801746202179,"(51.1801746202179, -114.13887063287)",FALSE,779.152095742054,1558.30419148411
830,8723R 36 AV NW,8723 36 AV NW,BOWNESS,05/28/2014 12:00:00 AM,May 28 2014,BP2012-16349,224,1,-114.214201833683,51.0934572599138,"(51.0934572599138, -114.214201833683)",FALSE,124.457100285611,248.914200571223
293,2040G 27 ST SW,2040G 27 ST SW,KILLARNEY/GLENGARRY,07/19/2013 12:00:00 AM,July 17 2013,BP2012-02540,134,6,-114.126050178096,51.0348967310844,"(51.0348967310844, -114.126050178096)",FALSE,229.36717131063,458.73434262126
805,8213 SADDLEBROOK DR NE,8213 SADDLEBROOK DR NE,SADDLE RIDGE,01/10/2012 12:00:00 AM,January 09 2012,BP2011-13489,91,3,-113.930137213122,51.1264288382072,"(51.1264288382072, -113.930137213122)",FALSE,261.565261559826,523.130523119652
489,335 EVERBROOK WY SW,335 EVERBROOK WY SW,EVERGREEN,05/01/2012 12:00:00 AM,April 30 2012,BP2011-06006,62,13,-114.111304445193,50.9200320329199,"(50.9200320329199, -114.111304445193)",FALSE,744.342488741693,1488.68497748339
804,8208 RANCHVIEW DR NW,8208 RANCHVIEW DR NW,RANCHLANDS,08/16/2013 12:00:00 AM,June 18 2013,BP2013-04208,263,2,-114.189623192486,51.1208053435306,"(51.1208053435306, -114.189623192486)",FALSE,157.139829606919,314.279659213838
844,927 18 ST NE,927 18 ST NE,MAYLAND HEIGHTS,03/11/2014 12:00:00 AM,March 11 2014,BP2010-05990,17,3,-114.016459167293,51.0606086985595,"(51.0606086985595, -114.016459167293)",FALSE,201.665631489753,403.331262979507
756,73G MARY DOVER DR SW,73G MARY DOVER DR SW,CFB - CURRIE,02/19/2015 12:00:00 AM,February 19 2015,BP2012-02219,131,8,-114.130135749712,51.017778722722,"(51.017778722722, -114.130135749712)",FALSE,367.369301957369,734.738603914739
487,33 SKYVIEW SHORES CR NE,33 SKYVIEW SHORES CR NE,SKYVIEW RANCH,07/19/2013 12:00:00 AM,July 17 2013,BP2012-07449,155,3,-113.967516807785,51.1585337142045,"(51.1585337142045, -113.967516807785)",FALSE,55.1019485885276,110.203897177055
860,#2 62 BRIDLERIDGE WY SW,62 BRIDLERIDGE WY SW,BRIDLEWOOD,,December 11 2015,PE2016-00128,469,13,-114.11005513446,50.9048938235943,"(50.9048938235943, -114.11005513446)",FALSE,349.691654185785,699.383308371571
